{"type":"FeatureCollection","features":[{"type":"Feature","properties":{"name":"Royal South Hants Hospital"},"geometry":{"type":"Point","coordinates":[-1.3982436,50.9127592]}},{"type":"Feature","properties":{"name":"Salvington Lodge"},"geometry":{"type":"Point","coordinates":[-0.4104772,50.8425453]}},{"type":"Feature","properties":{"name":"Halton General Hospital"},"geometry":{"type":"Point","coordinates":[-2.6945135,53.323296]}},{"type":"Feature","properties":{"name":"Royal Preston Hospital"},"geometry":{"type":"Point","coordinates":[-2.7065811,53.7899597]}},{"type":"Feature","properties":{"name":"Lings Bar Hospital"},"geometry":{"type":"Point","coordinates":[-1.100055,52.9225556]}},{"type":"Feature","properties":{"name":"West Cumberland Hospital"},"geometry":{"type":"Point","coordinates":[-3.5626234,54.5292197]}},{"type":"Feature","properties":{"name":"Spire Hull and East Riding Hospital"},"geometry":{"type":"Point","coordinates":[-0.4353644,53.7392851]}},{"type":"Feature","properties":{"name":"Wembley Centre for Health & Care"},"geometry":{"type":"Point","coordinates":[-0.3059305,51.5500864]}},{"type":"Feature","properties":{"name":"Unnamed"},"geometry":{"type":"Point","coordinates":[-0.3045693,51.5501205]}},{"type":"Feature","properties":{"name":"The Clementine Churchill Hospital"},"geometry":{"type":"Point","coordinates":[-0.3322955,51.5650798]}},{"type":"Feature","properties":{"name":"Darlington Memorial Hospital"},"geometry":{"type":"Point","coordinates":[-1.5638238,54.5306688]}},{"type":"Feature","properties":{"name":"Walton Community Hospital"},"geometry":{"type":"Point","coordinates":[-0.406427,51.379903]}},{"type":"Feature","properties":{"name":"Clayponds Hospital"},"geometry":{"type":"Point","coordinates":[-0.2986011,51.4951007]}},{"type":"Feature","properties":{"name":"Unnamed"},"geometry":{"type":"Point","coordinates":[-2.3411722,55.7723534]}},{"type":"Feature","properties":{"name":"Denmark St Surgery"},"geometry":{"type":"Point","coordinates":[-1.5524001,54.5387908]}},{"type":"Feature","properties":{"name":"Royal Hampshire County Hospital"},"geometry":{"type":"Point","coordinates":[-1.3294776,51.0611719]}},{"type":"Feature","properties":{"name":"Harrogate District Hospital"},"geometry":{"type":"Point","coordinates":[-1.5178004,53.9938335]}},{"type":"Feature","properties":{"name":"Singleton Hospital"},"geometry":{"type":"Point","coordinates":[-3.9868266,51.6092095]}},{"type":"Feature","properties":{"name":"Wells Health Centre"},"geometry":{"type":"Point","coordinates":[-2.6554136,51.2037746]}},{"type":"Feature","properties":{"name":"Bridport Community Hospital"},"geometry":{"type":"Point","coordinates":[-2.7699299,50.7418016]}},{"type":"Feature","properties":{"name":"Brookfields Hospital"},"geometry":{"type":"Point","coordinates":[0.1531032,52.1974482]}},{"type":"Feature","properties":{"name":"Blyth Community Hospital"},"geometry":{"type":"Point","coordinates":[-1.5172526,55.1277296]}},{"type":"Feature","properties":{"name":"Blyth Health Centre"},"geometry":{"type":"Point","coordinates":[-1.515614,55.1279933]}},{"type":"Feature","properties":{"name":"The Oleaster National Centre for Mental Health"},"geometry":{"type":"Point","coordinates":[-1.940676,52.4478761]}},{"type":"Feature","properties":{"name":"Hellesdon Hospital"},"geometry":{"type":"Point","coordinates":[1.2507838,52.6596883]}},{"type":"Feature","properties":{"name":"Wensum Meadows"},"geometry":{"type":"Point","coordinates":[1.248654,52.6579579]}},{"type":"Feature","properties":{"name":"Rosie Maternity Hospital"},"geometry":{"type":"Point","coordinates":[0.139101,52.1739625]}},{"type":"Feature","properties":{"name":"Addenbrooke's Hospital"},"geometry":{"type":"Point","coordinates":[0.1411717,52.1740297]}},{"type":"Feature","properties":{"name":"Hull and East Riding Women and Childrens' Hospital"},"geometry":{"type":"Point","coordinates":[-0.3560335,53.7437028]}},{"type":"Feature","properties":{"name":"Humber Centre"},"geometry":{"type":"Point","coordinates":[-0.4448026,53.7720585]}},{"type":"Feature","properties":{"name":"Caludon Centre"},"geometry":{"type":"Point","coordinates":[-1.4453191,52.4224592]}},{"type":"Feature","properties":{"name":"Good Hope Hospital"},"geometry":{"type":"Point","coordinates":[-1.8124855,52.5674735]}},{"type":"Feature","properties":{"name":"BMI Saxon Clinic"},"geometry":{"type":"Point","coordinates":[-0.7401826,52.0254443]}},{"type":"Feature","properties":{"name":"Chadwick Lodge"},"geometry":{"type":"Point","coordinates":[-0.7408895,52.0267646]}},{"type":"Feature","properties":{"name":"Loughborough Health Centre"},"geometry":{"type":"Point","coordinates":[-1.2030504,52.7715636]}},{"type":"Feature","properties":{"name":"Coronation Wing"},"geometry":{"type":"Point","coordinates":[-0.667282,53.587534]}},{"type":"Feature","properties":{"name":"White Cross Court Community Rehabilitation Hospital"},"geometry":{"type":"Point","coordinates":[-1.0748087,53.97172]}},{"type":"Feature","properties":{"name":"Bedford Health Village"},"geometry":{"type":"Point","coordinates":[-0.4590154,52.1413161]}},{"type":"Feature","properties":{"name":"Chalmers Hospital"},"geometry":{"type":"Point","coordinates":[-2.5248926,57.6690363]}},{"type":"Feature","properties":{"name":"Mill View Hospital"},"geometry":{"type":"Point","coordinates":[-0.1909058,50.8428052]}},{"type":"Feature","properties":{"name":"Winfield Hospital"},"geometry":{"type":"Point","coordinates":[-2.2421966,51.8802153]}},{"type":"Feature","properties":{"name":"Newham Centre for Mental Health"},"geometry":{"type":"Point","coordinates":[0.0388136,51.5202848]}},{"type":"Feature","properties":{"name":"City & Hackney Centre for Mental Health"},"geometry":{"type":"Point","coordinates":[-0.0444111,51.5503279]}},{"type":"Feature","properties":{"name":"Belford Hospital"},"geometry":{"type":"Point","coordinates":[-5.1049163,56.8192484]}},{"type":"Feature","properties":{"name":"Johnson Community Hospital"},"geometry":{"type":"Point","coordinates":[-0.1502269,52.8017808]}},{"type":"Feature","properties":{"name":"Westmorland General Hospital"},"geometry":{"type":"Point","coordinates":[-2.7327012,54.3064666]}},{"type":"Feature","properties":{"name":"Mill Lodge"},"geometry":{"type":"Point","coordinates":[-1.2757244,52.8373534]}},{"type":"Feature","properties":{"name":"City of Coventry Health Centre"},"geometry":{"type":"Point","coordinates":[-1.5053989,52.4146765]}},{"type":"Feature","properties":{"name":"NHS Albany Lodge and St Albans Children Centre"},"geometry":{"type":"Point","coordinates":[-0.3440455,51.7553436]}},{"type":"Feature","properties":{"name":"Cambridge Biomedical Campus"},"geometry":{"type":"Point","coordinates":[0.1384769,52.173692]}},{"type":"Feature","properties":{"name":"Highland Hospice"},"geometry":{"type":"Point","coordinates":[-4.230235,57.4723326]}},{"type":"Feature","properties":{"name":"St Ann's Hospital"},"geometry":{"type":"Point","coordinates":[-0.0883215,51.5802183]}},{"type":"Feature","properties":{"name":"North Middlesex University Hospital"},"geometry":{"type":"Point","coordinates":[-0.0735435,51.613284]}},{"type":"Feature","properties":{"name":"South Liverpool NHS Treatment Centre"},"geometry":{"type":"Point","coordinates":[-2.8956184,53.3547842]}},{"type":"Feature","properties":{"name":"Royal Surrey County Hospital"},"geometry":{"type":"Point","coordinates":[-0.6088556,51.2411709]}},{"type":"Feature","properties":{"name":"The Wilson Hospital"},"geometry":{"type":"Point","coordinates":[-0.1631461,51.3975104]}},{"type":"Feature","properties":{"name":"Hammersmith Hospital"},"geometry":{"type":"Point","coordinates":[-0.235288,51.5173881]}},{"type":"Feature","properties":{"name":"Barnet Hospital"},"geometry":{"type":"Point","coordinates":[-0.2145599,51.6509125]}},{"type":"Feature","properties":{"name":"Ravenswood House"},"geometry":{"type":"Point","coordinates":[-1.2001141,50.8832078]}},{"type":"Feature","properties":{"name":"Dorset County Hospital"},"geometry":{"type":"Point","coordinates":[-2.4466291,50.7129913]}},{"type":"Feature","properties":{"name":"St George's Hospital"},"geometry":{"type":"Point","coordinates":[-0.1752072,51.4264422]}},{"type":"Feature","properties":{"name":"Newsam Centre"},"geometry":{"type":"Point","coordinates":[-1.4715285,53.8049278]}},{"type":"Feature","properties":{"name":"Greet Urgent Care Centre"},"geometry":{"type":"Point","coordinates":[-1.857725,52.4519029]}},{"type":"Feature","properties":{"name":"St. Helier Hospital"},"geometry":{"type":"Point","coordinates":[-0.1845767,51.3803771]}},{"type":"Feature","properties":{"name":"Thorneywood"},"geometry":{"type":"Point","coordinates":[-1.120909,52.9691662]}},{"type":"Feature","properties":{"name":"Barnes Hospital"},"geometry":{"type":"Point","coordinates":[-0.2558588,51.4672064]}},{"type":"Feature","properties":{"name":"Astley Ainslie Hospital"},"geometry":{"type":"Point","coordinates":[-3.1978374,55.9287569]}},{"type":"Feature","properties":{"name":"Spire Murrayfield Hospital"},"geometry":{"type":"Point","coordinates":[-3.2640546,55.9437762]}},{"type":"Feature","properties":{"name":"Royal Alexandra Hospital"},"geometry":{"type":"Point","coordinates":[-4.4357999,55.8351229]}},{"type":"Feature","properties":{"name":"Berrywood Hospital"},"geometry":{"type":"Point","coordinates":[-0.9599197,52.2473407]}},{"type":"Feature","properties":{"name":"Craigavon Area Hospital"},"geometry":{"type":"Point","coordinates":[-6.4110819,54.4344305]}},{"type":"Feature","properties":{"name":"Aston University Day Hospital"},"geometry":{"type":"Point","coordinates":[-1.887738,52.4852413]}},{"type":"Feature","properties":{"name":"Great Oaks"},"geometry":{"type":"Point","coordinates":[-0.6376485,53.5681586]}},{"type":"Feature","properties":{"name":"Queen Elizabeth Hospital"},"geometry":{"type":"Point","coordinates":[-1.9404304,52.4516854]}},{"type":"Feature","properties":{"name":"Northwick Park Hospital"},"geometry":{"type":"Point","coordinates":[-0.3215253,51.5753346]}},{"type":"Feature","properties":{"name":"Colman Hospital"},"geometry":{"type":"Point","coordinates":[1.2690598,52.620385]}},{"type":"Feature","properties":{"name":"St Mary's Hospital"},"geometry":{"type":"Point","coordinates":[-1.3003088,50.7112221]}},{"type":"Feature","properties":{"name":"St Nicholas Hospital"},"geometry":{"type":"Point","coordinates":[-1.6342557,55.0062817]}},{"type":"Feature","properties":{"name":"East Surrey Hospital"},"geometry":{"type":"Point","coordinates":[-0.1623128,51.2188913]}},{"type":"Feature","properties":{"name":"Grantham and District Hospital"},"geometry":{"type":"Point","coordinates":[-0.6421237,52.9208496]}},{"type":"Feature","properties":{"name":"The Winterbourne Hospital"},"geometry":{"type":"Point","coordinates":[-2.442005,50.7010671]}},{"type":"Feature","properties":{"name":"Thurrock Community Hospital"},"geometry":{"type":"Point","coordinates":[0.3364899,51.4967681]}},{"type":"Feature","properties":{"name":"Ormskirk District General Hospital"},"geometry":{"type":"Point","coordinates":[-2.8725027,53.5649581]}},{"type":"Feature","properties":{"name":"Queen Mary's Hospital"},"geometry":{"type":"Point","coordinates":[0.1039333,51.4187458]}},{"type":"Feature","properties":{"name":"Watford General Hospital"},"geometry":{"type":"Point","coordinates":[-0.4020442,51.6485253]}},{"type":"Feature","properties":{"name":"Victoria Infimary"},"geometry":{"type":"Point","coordinates":[-2.5192293,53.2616804]}},{"type":"Feature","properties":{"name":"Maudsley Hospital"},"geometry":{"type":"Point","coordinates":[-0.0902554,51.4690387]}},{"type":"Feature","properties":{"name":"Royal Stoke University Hospital"},"geometry":{"type":"Point","coordinates":[-2.2135279,53.0031261]}},{"type":"Feature","properties":{"name":"Loughborough Hospital"},"geometry":{"type":"Point","coordinates":[-1.2257905,52.7732631]}},{"type":"Feature","properties":{"name":"Dudhope Young Peoples Inpatient Unit"},"geometry":{"type":"Point","coordinates":[-2.9899619,56.4661063]}},{"type":"Feature","properties":{"name":"Glasgow Royal Infirmary"},"geometry":{"type":"Point","coordinates":[-4.2329782,55.8645686]}},{"type":"Feature","properties":{"name":"London Clinic"},"geometry":{"type":"Point","coordinates":[-0.1499741,51.5229039]}},{"type":"Feature","properties":{"name":"Ulster Hospital"},"geometry":{"type":"Point","coordinates":[-5.8116589,54.5970115]}},{"type":"Feature","properties":{"name":"Kneesworth House Hospital"},"geometry":{"type":"Point","coordinates":[-0.0318212,52.0791503]}},{"type":"Feature","properties":{"name":"The Chiltern Hospital"},"geometry":{"type":"Point","coordinates":[-0.6939176,51.6903533]}},{"type":"Feature","properties":{"name":"The Priory"},"geometry":{"type":"Point","coordinates":[-0.2516039,51.4622574]}},{"type":"Feature","properties":{"name":"Wonford House Hospital"},"geometry":{"type":"Point","coordinates":[-3.5051691,50.7150324]}},{"type":"Feature","properties":{"name":"Sandwell Park Hospital"},"geometry":{"type":"Point","coordinates":[-1.2129166,54.6920863]}},{"type":"Feature","properties":{"name":"University Hospital Crosshouse"},"geometry":{"type":"Point","coordinates":[-4.5397785,55.6136829]}},{"type":"Feature","properties":{"name":"Bishops Community Hospital"},"geometry":{"type":"Point","coordinates":[-3.00056,52.4933568]}},{"type":"Feature","properties":{"name":"Leverndale Hospital"},"geometry":{"type":"Point","coordinates":[-4.3664338,55.8351872]}},{"type":"Feature","properties":{"name":"Littlemore Mental Health Centre"},"geometry":{"type":"Point","coordinates":[-1.2294242,51.7184154]}},{"type":"Feature","properties":{"name":"Palmer Community Hospital"},"geometry":{"type":"Point","coordinates":[-1.4923344,54.980689]}},{"type":"Feature","properties":{"name":"The Shropshire Nuffield Hospital"},"geometry":{"type":"Point","coordinates":[-2.772162,52.6919463]}},{"type":"Feature","properties":{"name":"Blackpool Victoria Hospital"},"geometry":{"type":"Point","coordinates":[-3.0141402,53.8209587]}},{"type":"Feature","properties":{"name":"Tewkesbury Community Hospital"},"geometry":{"type":"Point","coordinates":[-2.1523176,51.9922873]}},{"type":"Feature","properties":{"name":"Kingsley Green Hospital"},"geometry":{"type":"Point","coordinates":[-0.3073136,51.7034647]}},{"type":"Feature","properties":{"name":"Tyrone and Fermanagh Hospital"},"geometry":{"type":"Point","coordinates":[-7.2698206,54.5917235]}},{"type":"Feature","properties":{"name":"Haywood Hospital Walk-in Centre"},"geometry":{"type":"Point","coordinates":[-2.1902949,53.0562194]}},{"type":"Feature","properties":{"name":"Crawley Hospital"},"geometry":{"type":"Point","coordinates":[-0.1973564,51.1166383]}},{"type":"Feature","properties":{"name":"St Leonards Hospital"},"geometry":{"type":"Point","coordinates":[-1.8570408,50.8174102]}},{"type":"Feature","properties":{"name":"Molesey Community Hospital"},"geometry":{"type":"Point","coordinates":[-0.3725266,51.3973376]}},{"type":"Feature","properties":{"name":"Aboyne Hospital and Health Centre"},"geometry":{"type":"Point","coordinates":[-2.7669447,57.0762129]}},{"type":"Feature","properties":{"name":"Royal Liverpool University Hospital"},"geometry":{"type":"Point","coordinates":[-2.9629464,53.4092539]}},{"type":"Feature","properties":{"name":"Pontefract Hospital"},"geometry":{"type":"Point","coordinates":[-1.3078644,53.6900574]}},{"type":"Feature","properties":{"name":"Warwick Hospital"},"geometry":{"type":"Point","coordinates":[-1.58321,52.2899653]}},{"type":"Feature","properties":{"name":"Vale Community Hospital"},"geometry":{"type":"Point","coordinates":[-2.354853,51.6892653]}},{"type":"Feature","properties":{"name":"Bedford Hospital South Wing"},"geometry":{"type":"Point","coordinates":[-0.4719619,52.1283986]}},{"type":"Feature","properties":{"name":"Royal Sussex County Hospital"},"geometry":{"type":"Point","coordinates":[-0.1176977,50.8194151]}},{"type":"Feature","properties":{"name":"Ashford Hospital"},"geometry":{"type":"Point","coordinates":[-0.4733728,51.4443852]}},{"type":"Feature","properties":{"name":"Luton and Dunstable Hospital"},"geometry":{"type":"Point","coordinates":[-0.4752869,51.8954108]}},{"type":"Feature","properties":{"name":"St Mark's"},"geometry":{"type":"Point","coordinates":[-0.3201695,51.575993]}},{"type":"Feature","properties":{"name":"Urgent Care Cambridge"},"geometry":{"type":"Point","coordinates":[0.1367897,52.2183876]}},{"type":"Feature","properties":{"name":"The Manor"},"geometry":{"type":"Point","coordinates":[-0.5139421,52.1381807]}},{"type":"Feature","properties":{"name":"John Radcliffe Hospital"},"geometry":{"type":"Point","coordinates":[-1.2194909,51.7641236]}},{"type":"Feature","properties":{"name":"Morriston Hospital"},"geometry":{"type":"Point","coordinates":[-3.935429,51.6835309]}},{"type":"Feature","properties":{"name":"Unnamed"},"geometry":{"type":"Point","coordinates":[-0.1195749,52.2471724]}},{"type":"Feature","properties":{"name":"Freeman Hospital"},"geometry":{"type":"Point","coordinates":[-1.5931804,55.0025688]}},{"type":"Feature","properties":{"name":"Northern General Hospital"},"geometry":{"type":"Point","coordinates":[-1.4583046,53.4103679]}},{"type":"Feature","properties":{"name":"Tolworth Hospital"},"geometry":{"type":"Point","coordinates":[-0.2891912,51.3794911]}},{"type":"Feature","properties":{"name":"Kingston Hospital"},"geometry":{"type":"Point","coordinates":[-0.2826846,51.4149164]}},{"type":"Feature","properties":{"name":"Priory Health Park"},"geometry":{"type":"Point","coordinates":[-2.6556584,51.2038891]}},{"type":"Feature","properties":{"name":"Leeds General Infirmary"},"geometry":{"type":"Point","coordinates":[-1.5528519,53.8023566]}},{"type":"Feature","properties":{"name":"Western Community Hospital"},"geometry":{"type":"Point","coordinates":[-1.4465831,50.924939]}},{"type":"Feature","properties":{"name":"Royal Shrewsbury Hospital"},"geometry":{"type":"Point","coordinates":[-2.7937428,52.7089859]}},{"type":"Feature","properties":{"name":"Eastbourne District General Hospital"},"geometry":{"type":"Point","coordinates":[0.2700601,50.7862192]}},{"type":"Feature","properties":{"name":"Nuffield Orthopaedic Centre"},"geometry":{"type":"Point","coordinates":[-1.2090151,51.7545432]}},{"type":"Feature","properties":{"name":"Rotherham General Hospital"},"geometry":{"type":"Point","coordinates":[-1.3440131,53.4138178]}},{"type":"Feature","properties":{"name":"Royal Albert Edward Infirmary"},"geometry":{"type":"Point","coordinates":[-2.6298156,53.5578245]}},{"type":"Feature","properties":{"name":"Thomas Linacre Outpatient Centre"},"geometry":{"type":"Point","coordinates":[-2.6352793,53.5503998]}},{"type":"Feature","properties":{"name":"Lister Hospital"},"geometry":{"type":"Point","coordinates":[-0.2139629,51.9247379]}},{"type":"Feature","properties":{"name":"Queen Victoria Hospital"},"geometry":{"type":"Point","coordinates":[-2.8588556,54.0727631]}},{"type":"Feature","properties":{"name":"The Claremont Hospital"},"geometry":{"type":"Point","coordinates":[-1.5359314,53.3753212]}},{"type":"Feature","properties":{"name":"Finchley Memorial Hospital"},"geometry":{"type":"Point","coordinates":[-0.1770117,51.60561]}},{"type":"Feature","properties":{"name":"Chase Farm Hospital"},"geometry":{"type":"Point","coordinates":[-0.10256,51.6670768]}},{"type":"Feature","properties":{"name":"St Michael's Community Hospital"},"geometry":{"type":"Point","coordinates":[-0.0839186,51.6620161]}},{"type":"Feature","properties":{"name":"Campus for Ageing and Vitality"},"geometry":{"type":"Point","coordinates":[-1.64453,54.9770977]}},{"type":"Feature","properties":{"name":"St Anthony's"},"geometry":{"type":"Point","coordinates":[-0.2207259,51.3798981]}},{"type":"Feature","properties":{"name":"Warneford Hospital"},"geometry":{"type":"Point","coordinates":[-1.2214959,51.7506708]}},{"type":"Feature","properties":{"name":"Central Middlesex Hospital"},"geometry":{"type":"Point","coordinates":[-0.2676149,51.5314837]}},{"type":"Feature","properties":{"name":"Lambeth Hospital"},"geometry":{"type":"Point","coordinates":[-0.1224959,51.4653315]}},{"type":"Feature","properties":{"name":"Withybush Hospital"},"geometry":{"type":"Point","coordinates":[-4.9646904,51.8131241]}},{"type":"Feature","properties":{"name":"Royston Hospital"},"geometry":{"type":"Point","coordinates":[-0.021915,52.0408429]}},{"type":"Feature","properties":{"name":"Woodhouse Health Centre"},"geometry":{"type":"Point","coordinates":[-1.5476053,53.812663]}},{"type":"Feature","properties":{"name":"Aldrington House"},"geometry":{"type":"Point","coordinates":[-0.1842301,50.8301875]}},{"type":"Feature","properties":{"name":"Ards Hospital"},"geometry":{"type":"Point","coordinates":[-5.7055973,54.5938304]}},{"type":"Feature","properties":{"name":"Atrium Health"},"geometry":{"type":"Point","coordinates":[-1.518724,52.408831]}},{"type":"Feature","properties":{"name":"Cambridge Lea Hospital (Spire)"},"geometry":{"type":"Point","coordinates":[0.1134644,52.2447321]}},{"type":"Feature","properties":{"name":"Hinchingbrooke Hospital"},"geometry":{"type":"Point","coordinates":[-0.2021603,52.3324685]}},{"type":"Feature","properties":{"name":"Inverclyde Royal Hospital"},"geometry":{"type":"Point","coordinates":[-4.8094292,55.9437863]}},{"type":"Feature","properties":{"name":"Churchill Hospital"},"geometry":{"type":"Point","coordinates":[-1.2129786,51.7491861]}},{"type":"Feature","properties":{"name":"Southmead Hospital"},"geometry":{"type":"Point","coordinates":[-2.5914651,51.4966722]}},{"type":"Feature","properties":{"name":"Wexham Park Hospital"},"geometry":{"type":"Point","coordinates":[-0.5740083,51.5322498]}},{"type":"Feature","properties":{"name":"Croydon University Hospital"},"geometry":{"type":"Point","coordinates":[-0.1100563,51.3901236]}},{"type":"Feature","properties":{"name":"Townlands Memorial Hospital"},"geometry":{"type":"Point","coordinates":[-0.9090387,51.5386736]}},{"type":"Feature","properties":{"name":"West Middlesex Hospital"},"geometry":{"type":"Point","coordinates":[-0.3244097,51.4730783]}},{"type":"Feature","properties":{"name":"Ninewells Hospital"},"geometry":{"type":"Point","coordinates":[-3.0372742,56.4636835]}},{"type":"Feature","properties":{"name":"Eye Hospital"},"geometry":{"type":"Point","coordinates":[-0.1176353,50.8187633]}},{"type":"Feature","properties":{"name":"Kings Cross Hospital"},"geometry":{"type":"Point","coordinates":[-2.9871666,56.4767928]}},{"type":"Feature","properties":{"name":"Leicester Nuffield Hospital"},"geometry":{"type":"Point","coordinates":[-1.0713687,52.6440244]}},{"type":"Feature","properties":{"name":"Llandough Hospital"},"geometry":{"type":"Point","coordinates":[-3.2028979,51.4480255]}},{"type":"Feature","properties":{"name":"Norbury Health Centre"},"geometry":{"type":"Point","coordinates":[-0.1203608,51.4049847]}},{"type":"Feature","properties":{"name":"St. Luke's Hospital"},"geometry":{"type":"Point","coordinates":[-1.7617133,53.7837358]}},{"type":"Feature","properties":{"name":"Cardiff North Dialysis Unit"},"geometry":{"type":"Point","coordinates":[-3.1373021,51.5311076]}},{"type":"Feature","properties":{"name":"St Mary's Hospital"},"geometry":{"type":"Point","coordinates":[-1.61259,53.7997783]}},{"type":"Feature","properties":{"name":"Cefn Coed Hospital"},"geometry":{"type":"Point","coordinates":[-3.9886673,51.6279291]}},{"type":"Feature","properties":{"name":"Royal National Throat, Nose and Ear Hospital"},"geometry":{"type":"Point","coordinates":[-0.1192676,51.5292405]}},{"type":"Feature","properties":{"name":"Bluebird Lodge"},"geometry":{"type":"Point","coordinates":[1.1994152,52.0258771]}},{"type":"Feature","properties":{"name":"Maidstone Hospital"},"geometry":{"type":"Point","coordinates":[0.485671,51.27469]}},{"type":"Feature","properties":{"name":"Prince Charles Hospital / Ysbyty'r Tywysog Siarl"},"geometry":{"type":"Point","coordinates":[-3.3862182,51.7633791]}},{"type":"Feature","properties":{"name":"Bourne Hall Health Centre"},"geometry":{"type":"Point","coordinates":[-0.2525304,51.3512724]}},{"type":"Feature","properties":{"name":"Withington Clinic"},"geometry":{"type":"Point","coordinates":[-2.2281434,53.4306918]}},{"type":"Feature","properties":{"name":"Christchurch Hospital"},"geometry":{"type":"Point","coordinates":[-1.790275,50.7451615]}},{"type":"Feature","properties":{"name":"Queen's Hospital"},"geometry":{"type":"Point","coordinates":[-1.6559312,52.8172068]}},{"type":"Feature","properties":{"name":"Outwood Site"},"geometry":{"type":"Point","coordinates":[-1.6592825,52.8204865]}},{"type":"Feature","properties":{"name":"Saint Mary's"},"geometry":{"type":"Point","coordinates":[-1.0632119,50.7998085]}},{"type":"Feature","properties":{"name":"Queen Alexandra Hospital"},"geometry":{"type":"Point","coordinates":[-1.0700386,50.8501874]}},{"type":"Feature","properties":{"name":"Montfield Hospital"},"geometry":{"type":"Point","coordinates":[-1.1518328,60.153557]}},{"type":"Feature","properties":{"name":"Caterham Dene Hospital & Minor Injuries Unit"},"geometry":{"type":"Point","coordinates":[-0.0855357,51.283807]}},{"type":"Feature","properties":{"name":"Caterham Dene - Physiotherapy"},"geometry":{"type":"Point","coordinates":[-0.0854675,51.2835621]}},{"type":"Feature","properties":{"name":"Warrington Hospital"},"geometry":{"type":"Point","coordinates":[-2.6088069,53.393748]}},{"type":"Feature","properties":{"name":"Bracton Centre"},"geometry":{"type":"Point","coordinates":[0.1796349,51.4332547]}},{"type":"Feature","properties":{"name":"Queen Elizabeth The Queen Mother Hospital"},"geometry":{"type":"Point","coordinates":[1.3890081,51.377117]}},{"type":"Feature","properties":{"name":"Priory Hospital Bristol"},"geometry":{"type":"Point","coordinates":[-2.5667924,51.4806078]}},{"type":"Feature","properties":{"name":"Rikenel Health Centre"},"geometry":{"type":"Point","coordinates":[-2.2448283,51.8603959]}},{"type":"Feature","properties":{"name":"Gloucestershire Royal Hospital"},"geometry":{"type":"Point","coordinates":[-2.2324907,51.8660903]}},{"type":"Feature","properties":{"name":"NHS Treatment Centre"},"geometry":{"type":"Point","coordinates":[-1.1824804,52.9423334]}},{"type":"Feature","properties":{"name":"Sunderland Royal Hospital"},"geometry":{"type":"Point","coordinates":[-1.4088444,54.9028632]}},{"type":"Feature","properties":{"name":"Seaton Hospital"},"geometry":{"type":"Point","coordinates":[-3.0718298,50.7119464]}},{"type":"Feature","properties":{"name":"St Charles' Hospital"},"geometry":{"type":"Point","coordinates":[-0.2176095,51.5222211]}},{"type":"Feature","properties":{"name":"Manchester University Hospitals (central site)"},"geometry":{"type":"Point","coordinates":[-2.2252393,53.4615994]}},{"type":"Feature","properties":{"name":"Ashworth Hospital"},"geometry":{"type":"Point","coordinates":[-2.9132204,53.5213164]}},{"type":"Feature","properties":{"name":"Callington Road Hospital"},"geometry":{"type":"Point","coordinates":[-2.5582871,51.4309505]}},{"type":"Feature","properties":{"name":"Royal Berkshire Hospital"},"geometry":{"type":"Point","coordinates":[-0.9580091,51.449191]}},{"type":"Feature","properties":{"name":"Hillingdon Hospital"},"geometry":{"type":"Point","coordinates":[-0.4614635,51.5255502]}},{"type":"Feature","properties":{"name":"Stepping Hill Hospital"},"geometry":{"type":"Point","coordinates":[-2.1332092,53.3845108]}},{"type":"Feature","properties":{"name":"Mount Gould Hospital"},"geometry":{"type":"Point","coordinates":[-4.1130814,50.3780503]}},{"type":"Feature","properties":{"name":"Newham University Hospital"},"geometry":{"type":"Point","coordinates":[0.0366399,51.5216743]}},{"type":"Feature","properties":{"name":"Edward Street Hospital"},"geometry":{"type":"Point","coordinates":[-1.9988028,52.5190405]}},{"type":"Feature","properties":{"name":"Whiston Hospital"},"geometry":{"type":"Point","coordinates":[-2.7846765,53.4204174]}},{"type":"Feature","properties":{"name":"Ottery St Mary Hospital"},"geometry":{"type":"Point","coordinates":[-3.291435,50.7502411]}},{"type":"Feature","properties":{"name":"Gorseinon Hospital"},"geometry":{"type":"Point","coordinates":[-4.0479854,51.6721966]}},{"type":"Feature","properties":{"name":"Nuffield Health Brighton Hospital"},"geometry":{"type":"Point","coordinates":[-0.081974,50.8345492]}},{"type":"Feature","properties":{"name":"The Manor Hospital"},"geometry":{"type":"Point","coordinates":[-1.2154791,51.7602574]}},{"type":"Feature","properties":{"name":"Monkwearmouth Hospital"},"geometry":{"type":"Point","coordinates":[-1.3858816,54.9236483]}},{"type":"Feature","properties":{"name":"Middleton Community Health Centre"},"geometry":{"type":"Point","coordinates":[-1.5471861,53.7427808]}},{"type":"Feature","properties":{"name":"Peterlee Community Hospital"},"geometry":{"type":"Point","coordinates":[-1.3332639,54.7543924]}},{"type":"Feature","properties":{"name":"Royal Devon & Exeter Hospital (Heavitree)"},"geometry":{"type":"Point","coordinates":[-3.5139967,50.7247155]}},{"type":"Feature","properties":{"name":"St Albans City Hospital"},"geometry":{"type":"Point","coordinates":[-0.3439161,51.7601507]}},{"type":"Feature","properties":{"name":"Cygnet Hospital"},"geometry":{"type":"Point","coordinates":[-0.6152907,51.3147995]}},{"type":"Feature","properties":{"name":"Fairfield Hospital"},"geometry":{"type":"Point","coordinates":[-2.7496415,53.4846467]}},{"type":"Feature","properties":{"name":"Cheltenham General Hospital"},"geometry":{"type":"Point","coordinates":[-2.0717942,51.893023]}},{"type":"Feature","properties":{"name":"Tunbridge Wells Hospital at Pembury"},"geometry":{"type":"Point","coordinates":[0.3083364,51.1490287]}},{"type":"Feature","properties":{"name":"Seachange"},"geometry":{"type":"Point","coordinates":[-3.3191654,50.6315439]}},{"type":"Feature","properties":{"name":"Farnham Road Hospital"},"geometry":{"type":"Point","coordinates":[-0.5850384,51.2356213]}},{"type":"Feature","properties":{"name":"Bethlem Royal Hospital"},"geometry":{"type":"Point","coordinates":[-0.0316828,51.3826284]}},{"type":"Feature","properties":{"name":"Queen Mary's Hospital"},"geometry":{"type":"Point","coordinates":[-0.2416041,51.4549711]}},{"type":"Feature","properties":{"name":"Royal United Hospital"},"geometry":{"type":"Point","coordinates":[-2.3915606,51.3918302]}},{"type":"Feature","properties":{"name":"Badsley Moor Lane NHS"},"geometry":{"type":"Point","coordinates":[-1.3329887,53.4305155]}},{"type":"Feature","properties":{"name":"Childrens Resource Centre"},"geometry":{"type":"Point","coordinates":[0.255846,51.4355218]}},{"type":"Feature","properties":{"name":"Mardon Neuro-Rehabilitation Centre"},"geometry":{"type":"Point","coordinates":[-3.5135752,50.7172588]}},{"type":"Feature","properties":{"name":"Nuffield Hospital"},"geometry":{"type":"Point","coordinates":[-3.5119479,50.7164476]}},{"type":"Feature","properties":{"name":"Princess of Wales Community Hospital"},"geometry":{"type":"Point","coordinates":[-2.0559671,52.343695]}},{"type":"Feature","properties":{"name":"Lincoln County Hospital"},"geometry":{"type":"Point","coordinates":[-0.5183928,53.2334927]}},{"type":"Feature","properties":{"name":"Saint Martin's Hospital"},"geometry":{"type":"Point","coordinates":[-2.3713165,51.3578197]}},{"type":"Feature","properties":{"name":"Princess Royal Hospital"},"geometry":{"type":"Point","coordinates":[-2.5128576,52.712424]}},{"type":"Feature","properties":{"name":"St. Joseph's Hospital"},"geometry":{"type":"Point","coordinates":[-3.0043072,51.6181978]}},{"type":"Feature","properties":{"name":"St. Cadoc's Hospital"},"geometry":{"type":"Point","coordinates":[-2.9658085,51.6135052]}},{"type":"Feature","properties":{"name":"Royal Gwent Hospital"},"geometry":{"type":"Point","coordinates":[-2.997919,51.5801918]}},{"type":"Feature","properties":{"name":"St Woolos Hospital"},"geometry":{"type":"Point","coordinates":[-3.003001,51.5816382]}},{"type":"Feature","properties":{"name":"Woodburn House NHS"},"geometry":{"type":"Point","coordinates":[-3.2024259,55.9275212]}},{"type":"Feature","properties":{"name":"St Georges Hospital"},"geometry":{"type":"Point","coordinates":[-0.5568578,53.2441318]}},{"type":"Feature","properties":{"name":"St Catherines"},"geometry":{"type":"Point","coordinates":[-3.0262731,53.3798908]}},{"type":"Feature","properties":{"name":"Whipps Cross University Hospital"},"geometry":{"type":"Point","coordinates":[0.002042,51.5775152]}},{"type":"Feature","properties":{"name":"Western General Hospital (Edinburgh)"},"geometry":{"type":"Point","coordinates":[-3.2347813,55.9623853]}},{"type":"Feature","properties":{"name":"Culm Valley Integrated Centre for Health"},"geometry":{"type":"Point","coordinates":[-3.3926649,50.8643744]}},{"type":"Feature","properties":{"name":"Southport and Formby District General Hospital"},"geometry":{"type":"Point","coordinates":[-2.9785671,53.6335846]}},{"type":"Feature","properties":{"name":"University Hospital of Hartlepool"},"geometry":{"type":"Point","coordinates":[-1.2277927,54.7023471]}},{"type":"Feature","properties":{"name":"Potters Bar Community Hospital"},"geometry":{"type":"Point","coordinates":[-0.1774208,51.6871719]}},{"type":"Feature","properties":{"name":"St. Pancras Hospital"},"geometry":{"type":"Point","coordinates":[-0.1314026,51.5362791]}},{"type":"Feature","properties":{"name":"North Tees Hospital"},"geometry":{"type":"Point","coordinates":[-1.3474464,54.582608]}},{"type":"Feature","properties":{"name":"Homerton University Hospital"},"geometry":{"type":"Point","coordinates":[-0.045508,51.550645]}},{"type":"Feature","properties":{"name":"Chorley & South Ribble District General Hospital"},"geometry":{"type":"Point","coordinates":[-2.635891,53.6657625]}},{"type":"Feature","properties":{"name":"St Mary's Hospital"},"geometry":{"type":"Point","coordinates":[-0.1742846,51.5174818]}},{"type":"Feature","properties":{"name":"BMI Bath Clinic"},"geometry":{"type":"Point","coordinates":[-2.3324634,51.3641627]}},{"type":"Feature","properties":{"name":"St George's Hospital"},"geometry":{"type":"Point","coordinates":[-2.109532,52.8103578]}},{"type":"Feature","properties":{"name":"Dewsbury & District Hospital"},"geometry":{"type":"Point","coordinates":[-1.6504132,53.7022943]}},{"type":"Feature","properties":{"name":"Wessex Hospital"},"geometry":{"type":"Point","coordinates":[-1.3595559,50.9968564]}},{"type":"Feature","properties":{"name":"Royal Derby Hospital"},"geometry":{"type":"Point","coordinates":[-1.5130336,52.9109567]}},{"type":"Feature","properties":{"name":"Queen Elizabeth II Hospital"},"geometry":{"type":"Point","coordinates":[-0.1885156,51.7829774]}},{"type":"Feature","properties":{"name":"Mount Vernon"},"geometry":{"type":"Point","coordinates":[-0.4459713,51.6156301]}},{"type":"Feature","properties":{"name":"West Park Hospital"},"geometry":{"type":"Point","coordinates":[-2.1417718,52.5873005]}},{"type":"Feature","properties":{"name":"Royal National Orthopaedic Hospital"},"geometry":{"type":"Point","coordinates":[-0.3108357,51.6315936]}},{"type":"Feature","properties":{"name":"Birmingham Women's Hospital"},"geometry":{"type":"Point","coordinates":[-1.9431784,52.4532071]}},{"type":"Feature","properties":{"name":"The Whittington Hospital"},"geometry":{"type":"Point","coordinates":[-0.1393183,51.5666448]}},{"type":"Feature","properties":{"name":"St Mark's Hospital"},"geometry":{"type":"Point","coordinates":[-0.7434217,51.5255422]}},{"type":"Feature","properties":{"name":"Birmingham Children's Hospital"},"geometry":{"type":"Point","coordinates":[-1.8946865,52.4848585]}},{"type":"Feature","properties":{"name":"Southend University Hospital"},"geometry":{"type":"Point","coordinates":[0.6881358,51.5542474]}},{"type":"Feature","properties":{"name":"Solihull Hospital"},"geometry":{"type":"Point","coordinates":[-1.7747337,52.4173563]}},{"type":"Feature","properties":{"name":"Bradford Royal Infirmary"},"geometry":{"type":"Point","coordinates":[-1.7974488,53.8066968]}},{"type":"Feature","properties":{"name":"Royal Victoria Infirmary"},"geometry":{"type":"Point","coordinates":[-1.6202886,54.9795524]}},{"type":"Feature","properties":{"name":"Brixham Hospital"},"geometry":{"type":"Point","coordinates":[-3.514009,50.3893319]}},{"type":"Feature","properties":{"name":"Listonshells Day Centre"},"geometry":{"type":"Point","coordinates":[-1.7330466,53.7609856]}},{"type":"Feature","properties":{"name":"Prince Philip Hospital"},"geometry":{"type":"Point","coordinates":[-4.1354596,51.6919683]}},{"type":"Feature","properties":{"name":"Cygen Hospital, Bierley"},"geometry":{"type":"Point","coordinates":[-1.7317892,53.7680795]}},{"type":"Feature","properties":{"name":"Birmingham Children's Hospital A&E"},"geometry":{"type":"Point","coordinates":[-1.8931227,52.4852614]}},{"type":"Feature","properties":{"name":"Queen Elizabeth Hospital"},"geometry":{"type":"Point","coordinates":[0.4466682,52.7568344]}},{"type":"Feature","properties":{"name":"Chelmsley Wood NHS Primary Care Centre"},"geometry":{"type":"Point","coordinates":[-1.7524838,52.4804183]}},{"type":"Feature","properties":{"name":"Stroud General Hospital"},"geometry":{"type":"Point","coordinates":[-2.2077218,51.7428168]}},{"type":"Feature","properties":{"name":"Gartnavel General Hospital"},"geometry":{"type":"Point","coordinates":[-4.3133264,55.8820382]}},{"type":"Feature","properties":{"name":"Gartnavel Royal Hospital"},"geometry":{"type":"Point","coordinates":[-4.3190979,55.8828576]}},{"type":"Feature","properties":{"name":"Stoke Mandeville Hospital"},"geometry":{"type":"Point","coordinates":[-0.801917,51.7982923]}},{"type":"Feature","properties":{"name":"Birmingham Heartlands Hospital"},"geometry":{"type":"Point","coordinates":[-1.8286543,52.478081]}},{"type":"Feature","properties":{"name":"The Horton General Hospital"},"geometry":{"type":"Point","coordinates":[-1.3358443,52.0540058]}},{"type":"Feature","properties":{"name":"Bloxwich Hospital"},"geometry":{"type":"Point","coordinates":[-2.0047866,52.6136617]}},{"type":"Feature","properties":{"name":"The Zinnia Centre"},"geometry":{"type":"Point","coordinates":[-1.8674131,52.4490905]}},{"type":"Feature","properties":{"name":"Market Harborough Medical Centre"},"geometry":{"type":"Point","coordinates":[-0.9252436,52.4766523]}},{"type":"Feature","properties":{"name":"Derriford Hospital"},"geometry":{"type":"Point","coordinates":[-4.1162781,50.4171632]}},{"type":"Feature","properties":{"name":"Nuffield Clinic"},"geometry":{"type":"Point","coordinates":[-4.1149566,50.4185648]}},{"type":"Feature","properties":{"name":"Dykebar Hospital"},"geometry":{"type":"Point","coordinates":[-4.4000782,55.8229995]}},{"type":"Feature","properties":{"name":"Lanchester Road Hospital"},"geometry":{"type":"Point","coordinates":[-1.61147,54.7996089]}},{"type":"Feature","properties":{"name":"Ysbyty Bronglais / Bronglais Hospital"},"geometry":{"type":"Point","coordinates":[-4.0717943,52.4163834]}},{"type":"Feature","properties":{"name":"Worcestershire Royal Hospital"},"geometry":{"type":"Point","coordinates":[-2.18154,52.1913684]}},{"type":"Feature","properties":{"name":"Guisborough General Hospital"},"geometry":{"type":"Point","coordinates":[-1.0525537,54.5386082]}},{"type":"Feature","properties":{"name":"The Priory Hospital"},"geometry":{"type":"Point","coordinates":[-1.9137533,52.4556795]}},{"type":"Feature","properties":{"name":"Kidderminster Hospital"},"geometry":{"type":"Point","coordinates":[-2.2613901,52.3851806]}},{"type":"Feature","properties":{"name":"Daisy Hill Hospital"},"geometry":{"type":"Point","coordinates":[-6.3508635,54.1797795]}},{"type":"Feature","properties":{"name":"East Lothian Community Hospital"},"geometry":{"type":"Point","coordinates":[-2.7972731,55.9574128]}},{"type":"Feature","properties":{"name":"Yorkshire Clinic"},"geometry":{"type":"Point","coordinates":[-1.818165,53.8322521]}},{"type":"Feature","properties":{"name":"St Michaels"},"geometry":{"type":"Point","coordinates":[-1.5947445,52.2887207]}},{"type":"Feature","properties":{"name":"Doncaster Royal Infirmary"},"geometry":{"type":"Point","coordinates":[-1.1102706,53.5308452]}},{"type":"Feature","properties":{"name":"Tickhill Road"},"geometry":{"type":"Point","coordinates":[-1.1456858,53.4955618]}},{"type":"Feature","properties":{"name":"Samuel Johnson Community Hospital"},"geometry":{"type":"Point","coordinates":[-1.8155525,52.6858684]}},{"type":"Feature","properties":{"name":"Sutton Coldfield Cottage Hospital"},"geometry":{"type":"Point","coordinates":[-1.8260897,52.558999]}},{"type":"Feature","properties":{"name":"Abingdon Community Hospital"},"geometry":{"type":"Point","coordinates":[-1.3020196,51.6699016]}},{"type":"Feature","properties":{"name":"Saint David's Hospital"},"geometry":{"type":"Point","coordinates":[-3.194006,51.4818745]}},{"type":"Feature","properties":{"name":"Kettering General Hospital"},"geometry":{"type":"Point","coordinates":[-0.7414354,52.4019041]}},{"type":"Feature","properties":{"name":"Perth Royal Infirmary"},"geometry":{"type":"Point","coordinates":[-3.4551643,56.39617]}},{"type":"Feature","properties":{"name":"Evesham Community Hospital"},"geometry":{"type":"Point","coordinates":[-1.9472904,52.0854821]}},{"type":"Feature","properties":{"name":"Neath Port Talbot Hospital"},"geometry":{"type":"Point","coordinates":[-3.8013496,51.5987005]}},{"type":"Feature","properties":{"name":"Sheppey Community Hospital"},"geometry":{"type":"Point","coordinates":[0.7927107,51.4153207]}},{"type":"Feature","properties":{"name":"Northampton General Hospital"},"geometry":{"type":"Point","coordinates":[-0.8838202,52.2360649]}},{"type":"Feature","properties":{"name":"Castleberg Hospital"},"geometry":{"type":"Point","coordinates":[-2.2922063,54.0693435]}},{"type":"Feature","properties":{"name":"St. Michael's Hospital"},"geometry":{"type":"Point","coordinates":[-5.4244169,50.1804998]}},{"type":"Feature","properties":{"name":"Cygnet Hospital Derby"},"geometry":{"type":"Point","coordinates":[-1.4550889,52.907411]}},{"type":"Feature","properties":{"name":"Sunderland Eye Infirmary"},"geometry":{"type":"Point","coordinates":[-1.3810852,54.8892497]}},{"type":"Feature","properties":{"name":"Moseley Hall Hospital"},"geometry":{"type":"Point","coordinates":[-1.893374,52.4463416]}},{"type":"Feature","properties":{"name":"Helston Community Hospital"},"geometry":{"type":"Point","coordinates":[-5.2651715,50.0917905]}},{"type":"Feature","properties":{"name":"Ripley Hospital"},"geometry":{"type":"Point","coordinates":[-1.4109774,53.0479436]}},{"type":"Feature","properties":{"name":"Queen Elizabeth Hospital"},"geometry":{"type":"Point","coordinates":[-1.5803323,54.9388271]}},{"type":"Feature","properties":{"name":"South Tyneside District Hospital"},"geometry":{"type":"Point","coordinates":[-1.4290073,54.9715641]}},{"type":"Feature","properties":{"name":"Ilkeston Community Hospital"},"geometry":{"type":"Point","coordinates":[-1.3207737,52.9881546]}},{"type":"Feature","properties":{"name":"Castle Hill Hospital"},"geometry":{"type":"Point","coordinates":[-0.4432752,53.7785694]}},{"type":"Feature","properties":{"name":"Spire Healthcare Parkway Hospital"},"geometry":{"type":"Point","coordinates":[-1.7620005,52.4211653]}},{"type":"Feature","properties":{"name":"Stratford Road Centre"},"geometry":{"type":"Point","coordinates":[-1.8641585,52.4514949]}},{"type":"Feature","properties":{"name":"Barnsley Hospital"},"geometry":{"type":"Point","coordinates":[-1.4998301,53.5584406]}},{"type":"Feature","properties":{"name":"Berwick Infirmary"},"geometry":{"type":"Point","coordinates":[-2.0045008,55.7735054]}},{"type":"Feature","properties":{"name":"Kelso Hospital (Inch Hosp.)"},"geometry":{"type":"Point","coordinates":[-2.4357014,55.6026313]}},{"type":"Feature","properties":{"name":"Richmond Primary Care Centre"},"geometry":{"type":"Point","coordinates":[-1.8160833,52.47759]}},{"type":"Feature","properties":{"name":"Spire Clare Park Hospital"},"geometry":{"type":"Point","coordinates":[-0.8473544,51.2252021]}},{"type":"Feature","properties":{"name":"Parklands Hospital"},"geometry":{"type":"Point","coordinates":[-1.1122463,51.2827063]}},{"type":"Feature","properties":{"name":"West Midlands Hospital Ramsay Health care"},"geometry":{"type":"Point","coordinates":[-2.0767257,52.4577269]}},{"type":"Feature","properties":{"name":"Birmingham Chest Clinic"},"geometry":{"type":"Point","coordinates":[-1.9050639,52.4816103]}},{"type":"Feature","properties":{"name":"Clacton Hospital"},"geometry":{"type":"Point","coordinates":[1.1480647,51.7855005]}},{"type":"Feature","properties":{"name":"Isebrook Hospital"},"geometry":{"type":"Point","coordinates":[-0.6831254,52.298008]}},{"type":"Feature","properties":{"name":"St Patricks Centre for Community Health"},"geometry":{"type":"Point","coordinates":[-1.8874012,52.464311]}},{"type":"Feature","properties":{"name":"Royal Orthopaedic Hospital"},"geometry":{"type":"Point","coordinates":[-1.9611192,52.420502]}},{"type":"Feature","properties":{"name":"St Michael's Hospital"},"geometry":{"type":"Point","coordinates":[-3.587277,55.9748135]}},{"type":"Feature","properties":{"name":"Westminster Memorial Hospital"},"geometry":{"type":"Point","coordinates":[-2.2001257,51.0047244]}},{"type":"Feature","properties":{"name":"Shettleston Day Hospital & Parkview Resource Centre"},"geometry":{"type":"Point","coordinates":[-4.1759115,55.8488907]}},{"type":"Feature","properties":{"name":"Ealing Hospital"},"geometry":{"type":"Point","coordinates":[-0.3453188,51.5075305]}},{"type":"Feature","properties":{"name":"Whitworth Hospital"},"geometry":{"type":"Point","coordinates":[-1.574773,53.1507222]}},{"type":"Feature","properties":{"name":"The Princess Grace Hospital"},"geometry":{"type":"Point","coordinates":[-0.1529101,51.522486]}},{"type":"Feature","properties":{"name":"King Edward VII's Hospital"},"geometry":{"type":"Point","coordinates":[-0.1504175,51.5209342]}},{"type":"Feature","properties":{"name":"The Portland Hospital"},"geometry":{"type":"Point","coordinates":[-0.1443613,51.5230212]}},{"type":"Feature","properties":{"name":"The Priory Hospital"},"geometry":{"type":"Point","coordinates":[-1.9105584,52.456537]}},{"type":"Feature","properties":{"name":"Calderdale Royal Hospital"},"geometry":{"type":"Point","coordinates":[-1.8573616,53.7049662]}},{"type":"Feature","properties":{"name":"Aintree University Hospital"},"geometry":{"type":"Point","coordinates":[-2.933351,53.4656926]}},{"type":"Feature","properties":{"name":"Stobhill Hospital"},"geometry":{"type":"Point","coordinates":[-4.2216667,55.8932647]}},{"type":"Feature","properties":{"name":"MacKinnon House"},"geometry":{"type":"Point","coordinates":[-4.2236752,55.8929244]}},{"type":"Feature","properties":{"name":"Fleet Community Hospital"},"geometry":{"type":"Point","coordinates":[-0.8485718,51.2874427]}},{"type":"Feature","properties":{"name":"Runcorn Road Dialysis Unit"},"geometry":{"type":"Point","coordinates":[-1.8837419,52.4556429]}},{"type":"Feature","properties":{"name":"Tamarind Centre"},"geometry":{"type":"Point","coordinates":[-1.8360383,52.4749097]}},{"type":"Feature","properties":{"name":"Riverside Lodge Intermediate Care Unit"},"geometry":{"type":"Point","coordinates":[-1.8354011,52.4735151]}},{"type":"Feature","properties":{"name":"Cirencester Hospital"},"geometry":{"type":"Point","coordinates":[-1.9759847,51.7123462]}},{"type":"Feature","properties":{"name":"Steppingley Hospital"},"geometry":{"type":"Point","coordinates":[-0.5132783,52.0117989]}},{"type":"Feature","properties":{"name":"Carnegie Centre"},"geometry":{"type":"Point","coordinates":[-1.9154948,52.4971516]}},{"type":"Feature","properties":{"name":"Summerfield Urgent Care Centre"},"geometry":{"type":"Point","coordinates":[-1.93733,52.4877039]}},{"type":"Feature","properties":{"name":"The Queen Elizabeth University Hospital Campus"},"geometry":{"type":"Point","coordinates":[-4.3406979,55.8622358]}},{"type":"Feature","properties":{"name":"Royal Brompton Hospital"},"geometry":{"type":"Point","coordinates":[-0.170971,51.4891664]}},{"type":"Feature","properties":{"name":"The Royal Marsden Hospital"},"geometry":{"type":"Point","coordinates":[-0.1725464,51.4905731]}},{"type":"Feature","properties":{"name":"Stirling Health and Care Village"},"geometry":{"type":"Point","coordinates":[-3.9348007,56.1066222]}},{"type":"Feature","properties":{"name":"Babington Hospital"},"geometry":{"type":"Point","coordinates":[-1.4859676,53.0183409]}},{"type":"Feature","properties":{"name":"Princes House"},"geometry":{"type":"Point","coordinates":[-0.9590183,51.4517657]}},{"type":"Feature","properties":{"name":"Saint John's Hospital"},"geometry":{"type":"Point","coordinates":[-3.5225786,55.8923826]}},{"type":"Feature","properties":{"name":"The State Hospital"},"geometry":{"type":"Point","coordinates":[-3.6533231,55.6951703]}},{"type":"Feature","properties":{"name":"Sarum Road Hospital (BMI)"},"geometry":{"type":"Point","coordinates":[-1.3405371,51.0614012]}},{"type":"Feature","properties":{"name":"Rowley Regis Hospital"},"geometry":{"type":"Point","coordinates":[-2.052547,52.4809166]}},{"type":"Feature","properties":{"name":"Lady Home Cottage Hospital"},"geometry":{"type":"Point","coordinates":[-3.8389467,55.5582657]}},{"type":"Feature","properties":{"name":"Cambian Churchill"},"geometry":{"type":"Point","coordinates":[-0.1096392,51.497186]}},{"type":"Feature","properties":{"name":"Frome Community Hospital"},"geometry":{"type":"Point","coordinates":[-2.3114668,51.238099]}},{"type":"Feature","properties":{"name":"Stonehouse Hospital"},"geometry":{"type":"Point","coordinates":[-3.9916281,55.6922559]}},{"type":"Feature","properties":{"name":"Chelmsford and Essex (C&E) Centre"},"geometry":{"type":"Point","coordinates":[0.4708996,51.731008]}},{"type":"Feature","properties":{"name":"Bushey Fields Hospital"},"geometry":{"type":"Point","coordinates":[-2.1160751,52.5031168]}},{"type":"Feature","properties":{"name":"Russells Hall Hospital"},"geometry":{"type":"Point","coordinates":[-2.1184766,52.5026768]}},{"type":"Feature","properties":{"name":"Islay Hospital"},"geometry":{"type":"Point","coordinates":[-6.2793436,55.7557658]}},{"type":"Feature","properties":{"name":"Lockhart Hospital"},"geometry":{"type":"Point","coordinates":[-3.7599057,55.670075]}},{"type":"Feature","properties":{"name":"RMC"},"geometry":{"type":"Point","coordinates":[-0.9469298,51.2407174]}},{"type":"Feature","properties":{"name":"Huddersfield Royal Infirmary"},"geometry":{"type":"Point","coordinates":[-1.8151013,53.6553447]}},{"type":"Feature","properties":{"name":"Alfred Bean Community Hospital"},"geometry":{"type":"Point","coordinates":[-0.423233,54.0121698]}},{"type":"Feature","properties":{"name":"Medway Maritime Hospital"},"geometry":{"type":"Point","coordinates":[0.5416333,51.3796228]}},{"type":"Feature","properties":{"name":"Clackmannanshire Community Healthcare Centre"},"geometry":{"type":"Point","coordinates":[-3.7843976,56.1247115]}},{"type":"Feature","properties":{"name":"Unnamed"},"geometry":{"type":"Point","coordinates":[-0.2819639,51.5905128]}},{"type":"Feature","properties":{"name":"Nuffield Taunton"},"geometry":{"type":"Point","coordinates":[-3.1282583,51.028657]}},{"type":"Feature","properties":{"name":"Unnamed"},"geometry":{"type":"Point","coordinates":[-1.0525662,54.5397424]}},{"type":"Feature","properties":{"name":"St Mary's Hospital"},"geometry":{"type":"Point","coordinates":[-0.8763311,52.7661696]}},{"type":"Feature","properties":{"name":"Weavers House"},"geometry":{"type":"Point","coordinates":[-3.9354683,51.6173871]}},{"type":"Feature","properties":{"name":"Royal Infirmary of Edinburgh (Little France)"},"geometry":{"type":"Point","coordinates":[-3.1345976,55.9221695]}},{"type":"Feature","properties":{"name":"Ysbyty Cefni"},"geometry":{"type":"Point","coordinates":[-4.3044953,53.2566667]}},{"type":"Feature","properties":{"name":"Breckfield and North Everton"},"geometry":{"type":"Point","coordinates":[-2.9661357,53.4257533]}},{"type":"Feature","properties":{"name":"Knoll Community Hospital"},"geometry":{"type":"Point","coordinates":[-2.3411301,55.7725339]}},{"type":"Feature","properties":{"name":"Portree Community Hospital"},"geometry":{"type":"Point","coordinates":[-6.1932265,57.4104499]}},{"type":"Feature","properties":{"name":"Mary Hewetson Cottage Hospital"},"geometry":{"type":"Point","coordinates":[-3.1398379,54.6065915]}},{"type":"Feature","properties":{"name":"Malvern Community Hospital"},"geometry":{"type":"Point","coordinates":[-2.3209327,52.1248407]}},{"type":"Feature","properties":{"name":"Cobalt Treatment Centre"},"geometry":{"type":"Point","coordinates":[-1.5108579,55.0280221]}},{"type":"Feature","properties":{"name":"Ashton Community Care Centre"},"geometry":{"type":"Point","coordinates":[-2.7987449,54.0396994]}},{"type":"Feature","properties":{"name":"Belhaven Hospital"},"geometry":{"type":"Point","coordinates":[-2.5373587,55.9958501]}},{"type":"Feature","properties":{"name":"The One Ashford Hospital"},"geometry":{"type":"Point","coordinates":[0.912922,51.1425546]}},{"type":"Feature","properties":{"name":"The Royal Alexandra Children's Hospital"},"geometry":{"type":"Point","coordinates":[-0.1174446,50.8199084]}},{"type":"Feature","properties":{"name":"CRGH"},"geometry":{"type":"Point","coordinates":[-0.1015412,51.5202012]}},{"type":"Feature","properties":{"name":"Hunters Moor Neurorehabilitation Unit"},"geometry":{"type":"Point","coordinates":[-1.8426972,52.4413842]}},{"type":"Feature","properties":{"name":"Hythe Hospital"},"geometry":{"type":"Point","coordinates":[-1.4028949,50.8587624]}},{"type":"Feature","properties":{"name":"Mountainhall Treatment Centre"},"geometry":{"type":"Point","coordinates":[-3.5989338,55.0570221]}},{"type":"Feature","properties":{"name":"William Harvey Hospital"},"geometry":{"type":"Point","coordinates":[0.9145353,51.1418594]}},{"type":"Feature","properties":{"name":"Wycombe General Hospital"},"geometry":{"type":"Point","coordinates":[-0.7544882,51.6263178]}},{"type":"Feature","properties":{"name":"Thame Community Hospital"},"geometry":{"type":"Point","coordinates":[-0.9696827,51.7448703]}},{"type":"Feature","properties":{"name":"Unnamed"},"geometry":{"type":"Point","coordinates":[-2.9688691,51.3392946]}},{"type":"Feature","properties":{"name":"St Peter's Hospital"},"geometry":{"type":"Point","coordinates":[0.6715161,51.7300704]}},{"type":"Feature","properties":{"name":"Tonna Hospital"},"geometry":{"type":"Point","coordinates":[-3.7654464,51.6797609]}},{"type":"Feature","properties":{"name":"Fraserburgh Hospital"},"geometry":{"type":"Point","coordinates":[-2.0194661,57.6876306]}},{"type":"Feature","properties":{"name":"Honiton Community Hospital"},"geometry":{"type":"Point","coordinates":[-3.1869983,50.7952157]}},{"type":"Feature","properties":{"name":"The Nuffield"},"geometry":{"type":"Point","coordinates":[-1.3352403,54.5931868]}},{"type":"Feature","properties":{"name":"Little Woodhouse Hall"},"geometry":{"type":"Point","coordinates":[-1.5570682,53.8029738]}},{"type":"Feature","properties":{"name":"East Cleveland Hospital"},"geometry":{"type":"Point","coordinates":[-0.9365139,54.5649191]}},{"type":"Feature","properties":{"name":"Barry Hospital"},"geometry":{"type":"Point","coordinates":[-3.2848958,51.4139491]}},{"type":"Feature","properties":{"name":"Denbigh Infirmary"},"geometry":{"type":"Point","coordinates":[-3.4098599,53.1859512]}},{"type":"Feature","properties":{"name":"Biggleswade Hospital"},"geometry":{"type":"Point","coordinates":[-0.2470496,52.0989802]}},{"type":"Feature","properties":{"name":"South Pembrokeshire Hospital"},"geometry":{"type":"Point","coordinates":[-4.9570896,51.6928508]}},{"type":"Feature","properties":{"name":"Buckingham Community Hospital"},"geometry":{"type":"Point","coordinates":[-0.9856706,52.0023995]}},{"type":"Feature","properties":{"name":"Royal Leamington Spa Rehabilitation Hospital"},"geometry":{"type":"Point","coordinates":[-1.5404145,52.2689205]}},{"type":"Feature","properties":{"name":"Occupational Health Center"},"geometry":{"type":"Point","coordinates":[-0.6245022,53.5857876]}},{"type":"Feature","properties":{"name":"Unnamed"},"geometry":{"type":"Point","coordinates":[-0.747168,51.9975284]}},{"type":"Feature","properties":{"name":"Norwich Community Hospital"},"geometry":{"type":"Point","coordinates":[1.262908,52.6343714]}},{"type":"Feature","properties":{"name":"The Julian Hospital"},"geometry":{"type":"Point","coordinates":[1.2624577,52.6325545]}},{"type":"Feature","properties":{"name":"Tŷ Garngoch Hospital"},"geometry":{"type":"Point","coordinates":[-4.0112119,51.6584521]}},{"type":"Feature","properties":{"name":"Queens Medical Centre"},"geometry":{"type":"Point","coordinates":[-1.1850335,52.9435829]}},{"type":"Feature","properties":{"name":"Cardiff Royal Infirmary"},"geometry":{"type":"Point","coordinates":[-3.1625026,51.4851177]}},{"type":"Feature","properties":{"name":"Lawson Memorial Hospital"},"geometry":{"type":"Point","coordinates":[-3.9876189,57.9725495]}},{"type":"Feature","properties":{"name":"Royal Glamorgan Hospital"},"geometry":{"type":"Point","coordinates":[-3.3922908,51.5482968]}},{"type":"Feature","properties":{"name":"Lorn and Islands Hospital"},"geometry":{"type":"Point","coordinates":[-5.4748664,56.4002288]}},{"type":"Feature","properties":{"name":"Spire Bristol"},"geometry":{"type":"Point","coordinates":[-2.6148226,51.4721579]}},{"type":"Feature","properties":{"name":"Riverdale"},"geometry":{"type":"Point","coordinates":[-1.5201478,53.3707499]}},{"type":"Feature","properties":{"name":"Northumbria Specialist Emergency Care Hospital"},"geometry":{"type":"Point","coordinates":[-1.5688766,55.0748359]}},{"type":"Feature","properties":{"name":"The Edgbaston Hospital"},"geometry":{"type":"Point","coordinates":[-1.9331801,52.4574572]}},{"type":"Feature","properties":{"name":"Orsborn House NHS Substance Misuse Services"},"geometry":{"type":"Point","coordinates":[-1.9213317,52.5010553]}},{"type":"Feature","properties":{"name":"Woodbourne Priory Hospital"},"geometry":{"type":"Point","coordinates":[-1.9548769,52.4713375]}},{"type":"Feature","properties":{"name":"County Hospital"},"geometry":{"type":"Point","coordinates":[-3.0263707,51.6908946]}},{"type":"Feature","properties":{"name":"Hay Lodge Hospital"},"geometry":{"type":"Point","coordinates":[-3.1985016,55.6517815]}},{"type":"Feature","properties":{"name":"Nuffield Health Derby Hospital"},"geometry":{"type":"Point","coordinates":[-1.5302976,52.8934038]}},{"type":"Feature","properties":{"name":"Nuffield Health Chichester Hospital"},"geometry":{"type":"Point","coordinates":[-0.7799525,50.8479576]}},{"type":"Feature","properties":{"name":"Petersfield Hospital"},"geometry":{"type":"Point","coordinates":[-0.9423811,51.0038869]}},{"type":"Feature","properties":{"name":"Newmarket Hospital (no A&E)"},"geometry":{"type":"Point","coordinates":[0.3999628,52.2511149]}},{"type":"Feature","properties":{"name":"Fryatt Hospital"},"geometry":{"type":"Point","coordinates":[1.2608166,51.9337687]}},{"type":"Feature","properties":{"name":"Pontypridd and District Hospital"},"geometry":{"type":"Point","coordinates":[-3.326093,51.6023837]}},{"type":"Feature","properties":{"name":"The London Welbeck Hospital"},"geometry":{"type":"Point","coordinates":[-0.1493761,51.5182542]}},{"type":"Feature","properties":{"name":"Foss Park Hospital"},"geometry":{"type":"Point","coordinates":[-1.0723051,53.9814584]}},{"type":"Feature","properties":{"name":"Huddersfield Royal Infirmary Acre Street Outpatents"},"geometry":{"type":"Point","coordinates":[-1.8202648,53.6555977]}},{"type":"Feature","properties":{"name":"Dorothy House Hospice Care"},"geometry":{"type":"Point","coordinates":[-2.2912824,51.3454059]}},{"type":"Feature","properties":{"name":"Lister Hospital"},"geometry":{"type":"Point","coordinates":[-0.150183,51.4864231]}},{"type":"Feature","properties":{"name":"Sulis Hospital"},"geometry":{"type":"Point","coordinates":[-2.4166453,51.3114452]}},{"type":"Feature","properties":{"name":"Vincent Square Clinic"},"geometry":{"type":"Point","coordinates":[-0.1345453,51.4914736]}},{"type":"Feature","properties":{"name":"Gordon Hospital"},"geometry":{"type":"Point","coordinates":[-0.1359502,51.4921664]}},{"type":"Feature","properties":{"name":"Cowal Community Hospital"},"geometry":{"type":"Point","coordinates":[-4.9277688,55.9589433]}},{"type":"Feature","properties":{"name":"Diana Princess of Wales Hospital"},"geometry":{"type":"Point","coordinates":[-0.0952822,53.5455245]}},{"type":"Feature","properties":{"name":"Saint Andrew's Healthcare"},"geometry":{"type":"Point","coordinates":[-1.9156324,52.4355352]}},{"type":"Feature","properties":{"name":"Chapel Allerton Hospital"},"geometry":{"type":"Point","coordinates":[-1.5302961,53.8224209]}},{"type":"Feature","properties":{"name":"County Hospital Louth"},"geometry":{"type":"Point","coordinates":[-0.0091146,53.3713673]}},{"type":"Feature","properties":{"name":"Park Attwood Clinic"},"geometry":{"type":"Point","coordinates":[-2.3002716,52.414176]}},{"type":"Feature","properties":{"name":"St Margaret's Hospital"},"geometry":{"type":"Point","coordinates":[-3.7186904,56.2932786]}},{"type":"Feature","properties":{"name":"King Edward VII Hospital"},"geometry":{"type":"Point","coordinates":[-0.6140584,51.473523]}},{"type":"Feature","properties":{"name":"Llanfrechfa Grange"},"geometry":{"type":"Point","coordinates":[-2.9968062,51.6448676]}},{"type":"Feature","properties":{"name":"Ugie Hospital"},"geometry":{"type":"Point","coordinates":[-1.7943536,57.5150173]}},{"type":"Feature","properties":{"name":"Evelina London Children's Hospital"},"geometry":{"type":"Point","coordinates":[-0.1183943,51.4983235]}},{"type":"Feature","properties":{"name":"Cygnet Hospital Harrogate"},"geometry":{"type":"Point","coordinates":[-1.5477203,53.9989923]}},{"type":"Feature","properties":{"name":"Nevill Hall Hospital"},"geometry":{"type":"Point","coordinates":[-3.0339902,51.8239518]}},{"type":"Feature","properties":{"name":"Nairn Town and County Hospital"},"geometry":{"type":"Point","coordinates":[-3.8732972,57.57817]}},{"type":"Feature","properties":{"name":"Buxton Health Centre"},"geometry":{"type":"Point","coordinates":[-1.9174624,53.2541476]}},{"type":"Feature","properties":{"name":"Pershore Hospital"},"geometry":{"type":"Point","coordinates":[-2.0777342,52.1140501]}},{"type":"Feature","properties":{"name":"Inverurie Hospital"},"geometry":{"type":"Point","coordinates":[-2.3793159,57.2768052]}},{"type":"Feature","properties":{"name":"Newquay Hospital"},"geometry":{"type":"Point","coordinates":[-5.0739946,50.4109287]}},{"type":"Feature","properties":{"name":"Lochmaben Hospital"},"geometry":{"type":"Point","coordinates":[-3.4538507,55.127976]}},{"type":"Feature","properties":{"name":"Kings Park Hospital"},"geometry":{"type":"Point","coordinates":[-1.8330574,50.7317716]}},{"type":"Feature","properties":{"name":"Priory Hospital Norwich"},"geometry":{"type":"Point","coordinates":[0.9912254,52.5256021]}},{"type":"Feature","properties":{"name":"Castle Douglas Hospital"},"geometry":{"type":"Point","coordinates":[-3.9249525,54.9391809]}},{"type":"Feature","properties":{"name":"Golden Jubilee National Hospital"},"geometry":{"type":"Point","coordinates":[-4.4258804,55.9062986]}},{"type":"Feature","properties":{"name":"Musgrove Park Hospital"},"geometry":{"type":"Point","coordinates":[-3.1210308,51.0114811]}},{"type":"Feature","properties":{"name":"Ayr & Ailsa Hospitals"},"geometry":{"type":"Point","coordinates":[-4.5972454,55.4324393]}},{"type":"Feature","properties":{"name":"St Margarets Hospice"},"geometry":{"type":"Point","coordinates":[-3.1289305,51.0174913]}},{"type":"Feature","properties":{"name":"Spire Southampton Hospital"},"geometry":{"type":"Point","coordinates":[-1.4324256,50.9305601]}},{"type":"Feature","properties":{"name":"Grays Court Community Hospital"},"geometry":{"type":"Point","coordinates":[0.1580578,51.5392785]}},{"type":"Feature","properties":{"name":"Southlands Hospital"},"geometry":{"type":"Point","coordinates":[-0.2563319,50.8408728]}},{"type":"Feature","properties":{"name":"Worthing Hospital"},"geometry":{"type":"Point","coordinates":[-0.3641218,50.8165002]}},{"type":"Feature","properties":{"name":"Princess Anne Hospital"},"geometry":{"type":"Point","coordinates":[-1.4351668,50.9353523]}},{"type":"Feature","properties":{"name":"Southampton General Hospital"},"geometry":{"type":"Point","coordinates":[-1.4354054,50.9325171]}},{"type":"Feature","properties":{"name":"St Thomas' Hospital"},"geometry":{"type":"Point","coordinates":[-0.1187323,51.4991013]}},{"type":"Feature","properties":{"name":"Cleveland Clinic London"},"geometry":{"type":"Point","coordinates":[-0.148755,51.4993942]}},{"type":"Feature","properties":{"name":"Orchard Private Hospital"},"geometry":{"type":"Point","coordinates":[-1.2812029,50.7123856]}},{"type":"Feature","properties":{"name":"Great Western Hospital"},"geometry":{"type":"Point","coordinates":[-1.7268056,51.5388882]}},{"type":"Feature","properties":{"name":"Queen Margaret Hospital"},"geometry":{"type":"Point","coordinates":[-3.4284653,56.0820988]}},{"type":"Feature","properties":{"name":"The Retreat"},"geometry":{"type":"Point","coordinates":[-1.0625503,53.9497536]}},{"type":"Feature","properties":{"name":"Northcroft Hospital"},"geometry":{"type":"Point","coordinates":[-1.8551237,52.5232292]}},{"type":"Feature","properties":{"name":"Brighton General Hospital"},"geometry":{"type":"Point","coordinates":[-0.1145203,50.8306388]}},{"type":"Feature","properties":{"name":"Brentwood Community Hospital"},"geometry":{"type":"Point","coordinates":[0.3160273,51.6233407]}},{"type":"Feature","properties":{"name":"Lightwood House"},"geometry":{"type":"Point","coordinates":[-1.4399246,53.3377128]}},{"type":"Feature","properties":{"name":"Unnamed"},"geometry":{"type":"Point","coordinates":[-3.1020892,51.0328281]}},{"type":"Feature","properties":{"name":"Unnamed"},"geometry":{"type":"Point","coordinates":[-3.1016202,51.0323169]}},{"type":"Feature","properties":{"name":"Altnagelvin Hospital"},"geometry":{"type":"Point","coordinates":[-7.2915854,54.9864391]}},{"type":"Feature","properties":{"name":"Gransha Park Hospital"},"geometry":{"type":"Point","coordinates":[-7.278551,55.015507]}},{"type":"Feature","properties":{"name":"The Argyll and Bute Hospital"},"geometry":{"type":"Point","coordinates":[-5.4172175,56.0424508]}},{"type":"Feature","properties":{"name":"Victoria Hospital"},"geometry":{"type":"Point","coordinates":[-5.055378,55.8300885]}},{"type":"Feature","properties":{"name":"Glanrhyd Hospital"},"geometry":{"type":"Point","coordinates":[-3.5860279,51.5265514]}},{"type":"Feature","properties":{"name":"Horsham Hospital"},"geometry":{"type":"Point","coordinates":[-0.3244136,51.0701027]}},{"type":"Feature","properties":{"name":"Royal Bournemouth Hospital"},"geometry":{"type":"Point","coordinates":[-1.8227757,50.7474951]}},{"type":"Feature","properties":{"name":"St Stephen's Centre Rehabilitation Day Care"},"geometry":{"type":"Point","coordinates":[-1.9350623,52.4988942]}},{"type":"Feature","properties":{"name":"Romsey Hospital"},"geometry":{"type":"Point","coordinates":[-1.4818563,50.9921739]}},{"type":"Feature","properties":{"name":"Northgate Hospital"},"geometry":{"type":"Point","coordinates":[-1.7089515,55.1847907]}},{"type":"Feature","properties":{"name":"Royal South Hants Hospital"},"geometry":{"type":"Point","coordinates":[-1.3974888,50.9125895]}},{"type":"Feature","properties":{"name":"Lymington New Forest Hospital"},"geometry":{"type":"Point","coordinates":[-1.5458149,50.7693385]}},{"type":"Feature","properties":{"name":"St George's Hospital"},"geometry":{"type":"Point","coordinates":[-1.6825849,55.1780576]}},{"type":"Feature","properties":{"name":"County Hospital"},"geometry":{"type":"Point","coordinates":[-2.0964903,52.8108388]}},{"type":"Feature","properties":{"name":"Nuffield Hospital"},"geometry":{"type":"Point","coordinates":[-1.0759015,53.974411]}},{"type":"Feature","properties":{"name":"Paulton Memorial Hospital"},"geometry":{"type":"Point","coordinates":[-2.4933239,51.298834]}},{"type":"Feature","properties":{"name":"Thornbury Health Centre"},"geometry":{"type":"Point","coordinates":[-2.5179782,51.6122364]}},{"type":"Feature","properties":{"name":"Alnwick Infirmary"},"geometry":{"type":"Point","coordinates":[-1.69718,55.4109083]}},{"type":"Feature","properties":{"name":"Hallam Street Hospital"},"geometry":{"type":"Point","coordinates":[-1.9858472,52.5277547]}},{"type":"Feature","properties":{"name":"Queens Hospital"},"geometry":{"type":"Point","coordinates":[0.1810182,51.5687233]}},{"type":"Feature","properties":{"name":"Glan Clwyd Hospital"},"geometry":{"type":"Point","coordinates":[-3.4969096,53.2714033]}},{"type":"Feature","properties":{"name":"Ysbyty Abergele"},"geometry":{"type":"Point","coordinates":[-3.583035,53.2656722]}},{"type":"Feature","properties":{"name":"Ysbyty Llandudno"},"geometry":{"type":"Point","coordinates":[-3.8276544,53.3111245]}},{"type":"Feature","properties":{"name":"Berkshire Independent Hospital"},"geometry":{"type":"Point","coordinates":[-0.9886605,51.4443285]}},{"type":"Feature","properties":{"name":"Reaside"},"geometry":{"type":"Point","coordinates":[-2.0098579,52.4004915]}},{"type":"Feature","properties":{"name":"Brookfields Hospital"},"geometry":{"type":"Point","coordinates":[0.1534359,52.1974936]}},{"type":"Feature","properties":{"name":"Tiverton and District Hospital"},"geometry":{"type":"Point","coordinates":[-3.4933496,50.9092336]}},{"type":"Feature","properties":{"name":"Broadmoor Hospital"},"geometry":{"type":"Point","coordinates":[-0.7774648,51.3687608]}},{"type":"Feature","properties":{"name":"Wythenshawe Hospital"},"geometry":{"type":"Point","coordinates":[-2.2923675,53.3885368]}},{"type":"Feature","properties":{"name":"The Barberry National Centre for Mental Health"},"geometry":{"type":"Point","coordinates":[-1.9424287,52.4489199]}},{"type":"Feature","properties":{"name":"Fleming Hospital"},"geometry":{"type":"Point","coordinates":[-3.2234063,57.4687344]}},{"type":"Feature","properties":{"name":"Falkirk Community Hospital"},"geometry":{"type":"Point","coordinates":[-3.7955357,55.9973504]}},{"type":"Feature","properties":{"name":"Crieff Community Hospital"},"geometry":{"type":"Point","coordinates":[-3.8425715,56.3702671]}},{"type":"Feature","properties":{"name":"Seafield Hospital"},"geometry":{"type":"Point","coordinates":[-2.9816982,57.668066]}},{"type":"Feature","properties":{"name":"Wokingham Hospital"},"geometry":{"type":"Point","coordinates":[-0.845857,51.4102863]}},{"type":"Feature","properties":{"name":"Holy Cross Hospital"},"geometry":{"type":"Point","coordinates":[-0.7372102,51.0905211]}},{"type":"Feature","properties":{"name":"Stephen Cottage Hospital"},"geometry":{"type":"Point","coordinates":[-3.1238752,57.4456305]}},{"type":"Feature","properties":{"name":"Haslemere & District Hospital"},"geometry":{"type":"Point","coordinates":[-0.7074426,51.0922974]}},{"type":"Feature","properties":{"name":"Ashtead Clinic"},"geometry":{"type":"Point","coordinates":[-0.3036458,51.3140897]}},{"type":"Feature","properties":{"name":"Alderney Hospital"},"geometry":{"type":"Point","coordinates":[-1.941343,50.7499393]}},{"type":"Feature","properties":{"name":"Addington Clinic"},"geometry":{"type":"Point","coordinates":[-1.9060727,50.7661902]}},{"type":"Feature","properties":{"name":"Wrightington Hospital"},"geometry":{"type":"Point","coordinates":[-2.711244,53.5898452]}},{"type":"Feature","properties":{"name":"Purley War Memorial Hospital"},"geometry":{"type":"Point","coordinates":[-0.1148023,51.3405666]}},{"type":"Feature","properties":{"name":"North Manchester General Hospital"},"geometry":{"type":"Point","coordinates":[-2.2287101,53.517719]}},{"type":"Feature","properties":{"name":"Falmouth Hospital"},"geometry":{"type":"Point","coordinates":[-5.0860695,50.155613]}},{"type":"Feature","properties":{"name":"Bellsdyke Hospital"},"geometry":{"type":"Point","coordinates":[-3.8173108,56.0354604]}},{"type":"Feature","properties":{"name":"Walton Hospital"},"geometry":{"type":"Point","coordinates":[-1.4415955,53.2214913]}},{"type":"Feature","properties":{"name":"North Staffordshire Nuffield Hospital"},"geometry":{"type":"Point","coordinates":[-2.2232194,52.9876924]}},{"type":"Feature","properties":{"name":"Royal Hospital for Neuro-Disability"},"geometry":{"type":"Point","coordinates":[-0.2139272,51.4519811]}},{"type":"Feature","properties":{"name":"Aldeburgh Community Hospital"},"geometry":{"type":"Point","coordinates":[1.5953225,52.1521017]}},{"type":"Feature","properties":{"name":"Clatterbridge Cancer Centre - Wirral"},"geometry":{"type":"Point","coordinates":[-3.0285966,53.3313824]}},{"type":"Feature","properties":{"name":"Leeds Student Medical Practice"},"geometry":{"type":"Point","coordinates":[-1.5491019,53.8073733]}},{"type":"Feature","properties":{"name":"Ysbyty Cwm Cynon"},"geometry":{"type":"Point","coordinates":[-3.3923072,51.6871111]}},{"type":"Feature","properties":{"name":"Scunthorpe General Hospital"},"geometry":{"type":"Point","coordinates":[-0.66719,53.5870022]}},{"type":"Feature","properties":{"name":"Insch War Memorial Hospital"},"geometry":{"type":"Point","coordinates":[-2.6139924,57.3404063]}},{"type":"Feature","properties":{"name":"Aldershot Centre for Health"},"geometry":{"type":"Point","coordinates":[-0.7656292,51.2543558]}},{"type":"Feature","properties":{"name":"Hospital of St Cross"},"geometry":{"type":"Point","coordinates":[-1.2573765,52.364075]}},{"type":"Feature","properties":{"name":"Marie Curie Hospice"},"geometry":{"type":"Point","coordinates":[-1.7602803,52.411277]}},{"type":"Feature","properties":{"name":"Shepton Mallet Community Hospital"},"geometry":{"type":"Point","coordinates":[-2.5625125,51.1902719]}},{"type":"Feature","properties":{"name":"Biggin Hill Clinic"},"geometry":{"type":"Point","coordinates":[0.0344392,51.3130711]}},{"type":"Feature","properties":{"name":"The Priory Hospital"},"geometry":{"type":"Point","coordinates":[-0.6225977,51.3225644]}},{"type":"Feature","properties":{"name":"Totnes Community Hospital"},"geometry":{"type":"Point","coordinates":[-3.6841293,50.4327715]}},{"type":"Feature","properties":{"name":"Goole and District Hospital"},"geometry":{"type":"Point","coordinates":[-0.8742469,53.7159392]}},{"type":"Feature","properties":{"name":"Ellen Badger Hospital"},"geometry":{"type":"Point","coordinates":[-1.6224857,52.0668558]}},{"type":"Feature","properties":{"name":"Borders General Hospital"},"geometry":{"type":"Point","coordinates":[-2.7438817,55.5953572]}},{"type":"Feature","properties":{"name":"Kent and Canterbury Hospital"},"geometry":{"type":"Point","coordinates":[1.0868392,51.2659343]}},{"type":"Feature","properties":{"name":"St. James's University Hospital"},"geometry":{"type":"Point","coordinates":[-1.5215566,53.8071812]}},{"type":"Feature","properties":{"name":"Hartswood Hospital"},"geometry":{"type":"Point","coordinates":[0.2930177,51.6004241]}},{"type":"Feature","properties":{"name":"West Mendip Community Hospital"},"geometry":{"type":"Point","coordinates":[-2.6992952,51.1602951]}},{"type":"Feature","properties":{"name":"Saint Martin's Hospital"},"geometry":{"type":"Point","coordinates":[1.1077346,51.2771245]}},{"type":"Feature","properties":{"name":"Skegness Hospital"},"geometry":{"type":"Point","coordinates":[0.3321933,53.145325]}},{"type":"Feature","properties":{"name":"Cheviot Primary Care Centre"},"geometry":{"type":"Point","coordinates":[-2.0188702,55.5466283]}},{"type":"Feature","properties":{"name":"Sandwell Health Campus"},"geometry":{"type":"Point","coordinates":[-1.9886247,52.5274438]}},{"type":"Feature","properties":{"name":"Heath Lane Hospital"},"geometry":{"type":"Point","coordinates":[-1.9904271,52.5376333]}},{"type":"Feature","properties":{"name":"Seacroft Hospital"},"geometry":{"type":"Point","coordinates":[-1.4712541,53.805565]}},{"type":"Feature","properties":{"name":"Minehead Community Hospital"},"geometry":{"type":"Point","coordinates":[-3.462711,51.1987822]}},{"type":"Feature","properties":{"name":"The Groves Medical Centre"},"geometry":{"type":"Point","coordinates":[-0.2613381,51.4103397]}},{"type":"Feature","properties":{"name":"Cygnet Hospital Colchester"},"geometry":{"type":"Point","coordinates":[0.8920793,51.9231053]}},{"type":"Feature","properties":{"name":"Westhaven Hospital"},"geometry":{"type":"Point","coordinates":[-2.480805,50.614883]}},{"type":"Feature","properties":{"name":"Parkside Lodge"},"geometry":{"type":"Point","coordinates":[-1.5902553,53.7993136]}},{"type":"Feature","properties":{"name":"The Royal Papworth Hospital"},"geometry":{"type":"Point","coordinates":[0.135771,52.1732461]}},{"type":"Feature","properties":{"name":"Farnham Community Hospital"},"geometry":{"type":"Point","coordinates":[-0.7843474,51.2206058]}},{"type":"Feature","properties":{"name":"Hull and East Yorkshire Eye Hospital"},"geometry":{"type":"Point","coordinates":[-0.354169,53.743954]}},{"type":"Feature","properties":{"name":"Feilding Palmer Hospital"},"geometry":{"type":"Point","coordinates":[-1.1976736,52.4578489]}},{"type":"Feature","properties":{"name":"Claire House Hospice"},"geometry":{"type":"Point","coordinates":[-3.0243387,53.3309762]}},{"type":"Feature","properties":{"name":"Clatterbridge Hospital"},"geometry":{"type":"Point","coordinates":[-3.0252248,53.3325771]}},{"type":"Feature","properties":{"name":"Saint John's Hospice"},"geometry":{"type":"Point","coordinates":[-3.0216844,53.3350013]}},{"type":"Feature","properties":{"name":"Rochdale Infirmary"},"geometry":{"type":"Point","coordinates":[-2.1599962,53.6236686]}},{"type":"Feature","properties":{"name":"University Hospital Coventry & Warwickshire"},"geometry":{"type":"Point","coordinates":[-1.4370726,52.4217727]}},{"type":"Feature","properties":{"name":"BMI Meriden Hospital"},"geometry":{"type":"Point","coordinates":[-1.4380762,52.4233953]}},{"type":"Feature","properties":{"name":"University Hospital Coventry"},"geometry":{"type":"Point","coordinates":[-1.4398492,52.4215366]}},{"type":"Feature","properties":{"name":"Bridlington and District Hospital"},"geometry":{"type":"Point","coordinates":[-0.2160278,54.0868452]}},{"type":"Feature","properties":{"name":"Liverpool Women's Hospital"},"geometry":{"type":"Point","coordinates":[-2.9591695,53.3984284]}},{"type":"Feature","properties":{"name":"Redcar Primary Care Hospital"},"geometry":{"type":"Point","coordinates":[-1.0697747,54.6007507]}},{"type":"Feature","properties":{"name":"Springdene Nursing Home"},"geometry":{"type":"Point","coordinates":[-0.1679502,51.6344405]}},{"type":"Feature","properties":{"name":"Fareham Community Hospital"},"geometry":{"type":"Point","coordinates":[-1.2747961,50.8705959]}},{"type":"Feature","properties":{"name":"Cheadle Hosptal"},"geometry":{"type":"Point","coordinates":[-1.9906276,52.9844926]}},{"type":"Feature","properties":{"name":"St Peter's Hospital A&E"},"geometry":{"type":"Point","coordinates":[-0.5267214,51.3771251]}},{"type":"Feature","properties":{"name":"Royal Victoria Hospital and Folkestone Minor Injury Unit"},"geometry":{"type":"Point","coordinates":[1.1715356,51.0860679]}},{"type":"Feature","properties":{"name":"Buckland Hospital"},"geometry":{"type":"Point","coordinates":[1.2913084,51.1317323]}},{"type":"Feature","properties":{"name":"Friarage Hospital"},"geometry":{"type":"Point","coordinates":[-1.4305565,54.3424449]}},{"type":"Feature","properties":{"name":"Witney Community Hospital"},"geometry":{"type":"Point","coordinates":[-1.4896882,51.7875141]}},{"type":"Feature","properties":{"name":"Liskeard Community Hospital"},"geometry":{"type":"Point","coordinates":[-4.450848,50.4617525]}},{"type":"Feature","properties":{"name":"Salisbury District Hospital"},"geometry":{"type":"Point","coordinates":[-1.787898,51.0452151]}},{"type":"Feature","properties":{"name":"St Ann's Hospice"},"geometry":{"type":"Point","coordinates":[-2.2266585,53.3757945]}},{"type":"Feature","properties":{"name":"Cheadle Royal Hospital"},"geometry":{"type":"Point","coordinates":[-2.2205441,53.3751114]}},{"type":"Feature","properties":{"name":"Darent Valley Hospital"},"geometry":{"type":"Point","coordinates":[0.2570899,51.434731]}},{"type":"Feature","properties":{"name":"Hampton Surgery"},"geometry":{"type":"Point","coordinates":[-1.7021597,52.4239013]}},{"type":"Feature","properties":{"name":"Clifton Park Treatment Centre"},"geometry":{"type":"Point","coordinates":[-1.1135184,53.9785561]}},{"type":"Feature","properties":{"name":"Maesteg Community Hospital"},"geometry":{"type":"Point","coordinates":[-3.669535,51.6110501]}},{"type":"Feature","properties":{"name":"Park View Clinic"},"geometry":{"type":"Point","coordinates":[-1.8977674,52.4396902]}},{"type":"Feature","properties":{"name":"The Chaucer Hospital"},"geometry":{"type":"Point","coordinates":[1.0874102,51.2620033]}},{"type":"Feature","properties":{"name":"Edgware Community Hospital"},"geometry":{"type":"Point","coordinates":[-0.2709666,51.6064844]}},{"type":"Feature","properties":{"name":"Tŷ Hafan Children's Hospice"},"geometry":{"type":"Point","coordinates":[-3.2322305,51.4019764]}},{"type":"Feature","properties":{"name":"Sleaford Medical Group"},"geometry":{"type":"Point","coordinates":[-0.4065431,52.9978348]}},{"type":"Feature","properties":{"name":"Ashcroft Surgery"},"geometry":{"type":"Point","coordinates":[-1.7123333,53.8242795]}},{"type":"Feature","properties":{"name":"Eccleshill Diagnostic Clinic"},"geometry":{"type":"Point","coordinates":[-1.7113576,53.8238578]}},{"type":"Feature","properties":{"name":"Duchy Hospital"},"geometry":{"type":"Point","coordinates":[-1.5479096,53.9876034]}},{"type":"Feature","properties":{"name":"Queen Victoria Memorial Hospital"},"geometry":{"type":"Point","coordinates":[1.1432567,51.3681236]}},{"type":"Feature","properties":{"name":"West View Hospital"},"geometry":{"type":"Point","coordinates":[0.6749555,51.0641373]}},{"type":"Feature","properties":{"name":"Royal Hallamshire Hospital"},"geometry":{"type":"Point","coordinates":[-1.4931511,53.3786684]}},{"type":"Feature","properties":{"name":"HMS Raleigh Medical Centre"},"geometry":{"type":"Point","coordinates":[-4.2241362,50.3731721]}},{"type":"Feature","properties":{"name":"David Stone Medical Centre"},"geometry":{"type":"Point","coordinates":[-1.5851897,51.760847]}},{"type":"Feature","properties":{"name":"Bowes Road Clinic"},"geometry":{"type":"Point","coordinates":[-0.1310823,51.6154941]}},{"type":"Feature","properties":{"name":"Ty Gwyn Hall"},"geometry":{"type":"Point","coordinates":[-3.0086266,51.8434989]}},{"type":"Feature","properties":{"name":"Nuffield Hospital"},"geometry":{"type":"Point","coordinates":[-2.1298722,51.8919427]}},{"type":"Feature","properties":{"name":"Coalville Community Hospital"},"geometry":{"type":"Point","coordinates":[-1.3479884,52.7240057]}},{"type":"Feature","properties":{"name":"Estuary View Medical Centre"},"geometry":{"type":"Point","coordinates":[1.0131637,51.3416366]}},{"type":"Feature","properties":{"name":"Guernsey House"},"geometry":{"type":"Point","coordinates":[-1.4721663,53.3634645]}},{"type":"Feature","properties":{"name":"Ardenleigh Hospital"},"geometry":{"type":"Point","coordinates":[-1.8338363,52.5159208]}},{"type":"Feature","properties":{"name":"Wharfedale Hospital"},"geometry":{"type":"Point","coordinates":[-1.6994791,53.9146568]}},{"type":"Feature","properties":{"name":"St Peters Centre"},"geometry":{"type":"Point","coordinates":[-2.2399106,53.7905832]}},{"type":"Feature","properties":{"name":"Newton Abbot Community Hospital"},"geometry":{"type":"Point","coordinates":[-3.6125136,50.5391842]}},{"type":"Feature","properties":{"name":"St Bartholomew's Hospital"},"geometry":{"type":"Point","coordinates":[-0.1000771,51.5175315]}},{"type":"Feature","properties":{"name":"John Taylor Hospice"},"geometry":{"type":"Point","coordinates":[-1.8224308,52.5275637]}},{"type":"Feature","properties":{"name":"Nuffield Hospital"},"geometry":{"type":"Point","coordinates":[0.3129081,51.6233456]}},{"type":"Feature","properties":{"name":"Prospect House"},"geometry":{"type":"Point","coordinates":[-0.7340286,52.4010556]}},{"type":"Feature","properties":{"name":"Robert Jones and Agnes Hunt Orthopaedic Hospital"},"geometry":{"type":"Point","coordinates":[-3.03394,52.8849491]}},{"type":"Feature","properties":{"name":"Everton Centre"},"geometry":{"type":"Point","coordinates":[-5.967655,54.6161919]}},{"type":"Feature","properties":{"name":"Kirkdale Medical Centre"},"geometry":{"type":"Point","coordinates":[-2.9739335,53.4329678]}},{"type":"Feature","properties":{"name":"Clock View Hospital"},"geometry":{"type":"Point","coordinates":[-2.9670636,53.4513971]}},{"type":"Feature","properties":{"name":"Manchester Royal Infirmary"},"geometry":{"type":"Point","coordinates":[-2.2261681,53.4629338]}},{"type":"Feature","properties":{"name":"East Riding Community Hospital"},"geometry":{"type":"Point","coordinates":[-0.41245,53.8530616]}},{"type":"Feature","properties":{"name":"Park Road Children & Family Centre"},"geometry":{"type":"Point","coordinates":[-1.8680365,52.4482984]}},{"type":"Feature","properties":{"name":"North Cotswolds Hospital"},"geometry":{"type":"Point","coordinates":[-1.7067562,51.9834788]}},{"type":"Feature","properties":{"name":"Prospect Park Hospital"},"geometry":{"type":"Point","coordinates":[-1.0144583,51.4491596]}},{"type":"Feature","properties":{"name":"Bideford Hospital"},"geometry":{"type":"Point","coordinates":[-4.213255,51.0179945]}},{"type":"Feature","properties":{"name":"Lynfield Mount Hospital"},"geometry":{"type":"Point","coordinates":[-1.8050251,53.809644]}},{"type":"Feature","properties":{"name":"Northgate Hospital"},"geometry":{"type":"Point","coordinates":[1.7299624,52.6173221]}},{"type":"Feature","properties":{"name":"Mill Garth Hospital"},"geometry":{"type":"Point","coordinates":[-1.5698687,53.8280325]}},{"type":"Feature","properties":{"name":"Andover Hospital (Grounds)"},"geometry":{"type":"Point","coordinates":[-1.4943226,51.2155051]}},{"type":"Feature","properties":{"name":"Priory Hospital"},"geometry":{"type":"Point","coordinates":[-1.4454203,50.8811119]}},{"type":"Feature","properties":{"name":"Washwood Heath Urgent Care Centre"},"geometry":{"type":"Point","coordinates":[-1.8490631,52.487432]}},{"type":"Feature","properties":{"name":"Rowanbank Clinic"},"geometry":{"type":"Point","coordinates":[-4.2177463,55.8909117]}},{"type":"Feature","properties":{"name":"South Bristol NHS Community Hospital"},"geometry":{"type":"Point","coordinates":[-2.5831403,51.4127584]}},{"type":"Feature","properties":{"name":"Renal Unit"},"geometry":{"type":"Point","coordinates":[-4.0938887,50.4188175]}},{"type":"Feature","properties":{"name":"Coquetdale Community Hospital"},"geometry":{"type":"Point","coordinates":[-1.9138233,55.3068134]}},{"type":"Feature","properties":{"name":"Community Paramedic Service"},"geometry":{"type":"Point","coordinates":[-1.9141491,55.3067526]}},{"type":"Feature","properties":{"name":"Milton Keynes University  Hospital"},"geometry":{"type":"Point","coordinates":[-0.7367014,52.0262459]}},{"type":"Feature","properties":{"name":"Eaglestone View"},"geometry":{"type":"Point","coordinates":[-0.7397023,52.0267905]}},{"type":"Feature","properties":{"name":"South West Acute Hospital"},"geometry":{"type":"Point","coordinates":[-7.6376731,54.3664932]}},{"type":"Feature","properties":{"name":"Mount Stuart Hospital"},"geometry":{"type":"Point","coordinates":[-3.5416511,50.4751061]}},{"type":"Feature","properties":{"name":"Archways"},"geometry":{"type":"Point","coordinates":[-1.0799568,53.9724826]}},{"type":"Feature","properties":{"name":"Shirley Oaks Hospital"},"geometry":{"type":"Point","coordinates":[-0.0563816,51.3821689]}},{"type":"Feature","properties":{"name":"Withington Community Hospital"},"geometry":{"type":"Point","coordinates":[-2.2461827,53.4253112]}},{"type":"Feature","properties":{"name":"Mile End Hospital"},"geometry":{"type":"Point","coordinates":[-0.0421703,51.5250528]}},{"type":"Feature","properties":{"name":"Ysbyty Machynlleth"},"geometry":{"type":"Point","coordinates":[-3.8455919,52.591764]}},{"type":"Feature","properties":{"name":"Riversdale Clinic"},"geometry":{"type":"Point","coordinates":[-0.4118877,52.9991797]}},{"type":"Feature","properties":{"name":"Medical Centre"},"geometry":{"type":"Point","coordinates":[-0.408656,52.9972781]}},{"type":"Feature","properties":{"name":"Newholme Hospital"},"geometry":{"type":"Point","coordinates":[-1.6719323,53.2187164]}},{"type":"Feature","properties":{"name":"Penn Hospital"},"geometry":{"type":"Point","coordinates":[-2.1592644,52.5586621]}},{"type":"Feature","properties":{"name":"The Old Red Hill Clinic (Barnet Adolescent Services)"},"geometry":{"type":"Point","coordinates":[-0.2772697,51.6114198]}},{"type":"Feature","properties":{"name":"South Petherton Hospital"},"geometry":{"type":"Point","coordinates":[-2.7985461,50.9528662]}},{"type":"Feature","properties":{"name":"Bromyard Community Hospital"},"geometry":{"type":"Point","coordinates":[-2.5068822,52.1863461]}},{"type":"Feature","properties":{"name":"Pilgrim Hospital"},"geometry":{"type":"Point","coordinates":[-0.010012,52.9915881]}},{"type":"Feature","properties":{"name":"Charing Cross Hospital"},"geometry":{"type":"Point","coordinates":[-0.2197632,51.486919]}},{"type":"Feature","properties":{"name":"Royal Victoria Hospital"},"geometry":{"type":"Point","coordinates":[-5.9544244,54.5947668]}},{"type":"Feature","properties":{"name":"Poole General Hospital"},"geometry":{"type":"Point","coordinates":[-1.9738157,50.7213936]}},{"type":"Feature","properties":{"name":"Royal Bolton Hospital"},"geometry":{"type":"Point","coordinates":[-2.4294913,53.5523533]}},{"type":"Feature","properties":{"name":"North Tyneside General Hospital"},"geometry":{"type":"Point","coordinates":[-1.4669678,55.02514]}},{"type":"Feature","properties":{"name":"Blackberry Hill Hospital"},"geometry":{"type":"Point","coordinates":[-2.5378608,51.4848647]}},{"type":"Feature","properties":{"name":"Forth Valley Royal Hospital"},"geometry":{"type":"Point","coordinates":[-3.8475665,56.0255487]}},{"type":"Feature","properties":{"name":"The Broadway Health Centre"},"geometry":{"type":"Point","coordinates":[-0.3793441,51.5111392]}},{"type":"Feature","properties":{"name":"Forster Green Hospital"},"geometry":{"type":"Point","coordinates":[-5.906021,54.562309]}},{"type":"Feature","properties":{"name":"The Mount. Lancashire Care NHS"},"geometry":{"type":"Point","coordinates":[-2.3688269,53.7596209]}},{"type":"Feature","properties":{"name":"Aylsham Health Centre"},"geometry":{"type":"Point","coordinates":[1.2373636,52.7947949]}},{"type":"Feature","properties":{"name":"Moorgreen Hospital"},"geometry":{"type":"Point","coordinates":[-1.3242045,50.9282288]}},{"type":"Feature","properties":{"name":"Woking Community Hospital"},"geometry":{"type":"Point","coordinates":[-0.5568503,51.3149284]}},{"type":"Feature","properties":{"name":"Blandford Community Hospital"},"geometry":{"type":"Point","coordinates":[-2.1665878,50.8619475]}},{"type":"Feature","properties":{"name":"Kingsway Health Centre"},"geometry":{"type":"Point","coordinates":[-0.2067519,51.8995288]}},{"type":"Feature","properties":{"name":"Victoria Hospital"},"geometry":{"type":"Point","coordinates":[0.1880023,51.5838151]}},{"type":"Feature","properties":{"name":"Springfield Hospital"},"geometry":{"type":"Point","coordinates":[0.4851576,51.7538735]}},{"type":"Feature","properties":{"name":"Maple Leaf Centre"},"geometry":{"type":"Point","coordinates":[-1.7362215,52.4703583]}},{"type":"Feature","properties":{"name":"Sherwood Oaks Hospital"},"geometry":{"type":"Point","coordinates":[-1.15033,53.1247693]}},{"type":"Feature","properties":{"name":"Glenfield Hospital"},"geometry":{"type":"Point","coordinates":[-1.1796047,52.655242]}},{"type":"Feature","properties":{"name":"Workington Community Hospital"},"geometry":{"type":"Point","coordinates":[-3.5513524,54.6427879]}},{"type":"Feature","properties":{"name":"Gorse Hill Hospital"},"geometry":{"type":"Point","coordinates":[-1.1759996,52.6630447]}},{"type":"Feature","properties":{"name":"Leicester General"},"geometry":{"type":"Point","coordinates":[-1.081583,52.6300107]}},{"type":"Feature","properties":{"name":"Unnamed"},"geometry":{"type":"Point","coordinates":[-1.0786535,52.6134661]}},{"type":"Feature","properties":{"name":"Spire Leicester Hospital"},"geometry":{"type":"Point","coordinates":[-1.0782147,52.6135781]}},{"type":"Feature","properties":{"name":"Crowborough War Memorial Hospital"},"geometry":{"type":"Point","coordinates":[0.1574026,51.0515255]}},{"type":"Feature","properties":{"name":"Medical Centre"},"geometry":{"type":"Point","coordinates":[-3.1551029,51.0387221]}},{"type":"Feature","properties":{"name":"Ivydene"},"geometry":{"type":"Point","coordinates":[-2.0685816,52.5925033]}},{"type":"Feature","properties":{"name":"St Mary’s NHS Treatment Centre"},"geometry":{"type":"Point","coordinates":[-1.0619395,50.7992811]}},{"type":"Feature","properties":{"name":"Nether Edge Hospital"},"geometry":{"type":"Point","coordinates":[-1.4982467,53.3608787]}},{"type":"Feature","properties":{"name":"Nether Edge Hospital"},"geometry":{"type":"Point","coordinates":[-1.4937724,53.3603617]}},{"type":"Feature","properties":{"name":"Windermere House"},"geometry":{"type":"Point","coordinates":[-0.3084265,53.7499177]}},{"type":"Feature","properties":{"name":"Courtenay House Surgery"},"geometry":{"type":"Point","coordinates":[-0.2774199,51.9512179]}},{"type":"Feature","properties":{"name":"Townend Court"},"geometry":{"type":"Point","coordinates":[-0.377032,53.7705778]}},{"type":"Feature","properties":{"name":"Hull Royal Infirmary"},"geometry":{"type":"Point","coordinates":[-0.3565565,53.7443751]}},{"type":"Feature","properties":{"name":"Lynebank Hospital"},"geometry":{"type":"Point","coordinates":[-3.4131347,56.0778089]}},{"type":"Feature","properties":{"name":"Fulbourn Hospital (psychiatric)"},"geometry":{"type":"Point","coordinates":[0.1880545,52.1849967]}},{"type":"Feature","properties":{"name":"Trowbridge Community Hospital"},"geometry":{"type":"Point","coordinates":[-2.2100987,51.3249147]}},{"type":"Feature","properties":{"name":"Royal Devon & Exeter Hospital (Wonford)"},"geometry":{"type":"Point","coordinates":[-3.5059556,50.7174312]}},{"type":"Feature","properties":{"name":"Sevenoaks Hospital"},"geometry":{"type":"Point","coordinates":[0.1955329,51.287789]}},{"type":"Feature","properties":{"name":"West Glasgow Ambulatory Care Hospital"},"geometry":{"type":"Point","coordinates":[-4.2972819,55.8666562]}},{"type":"Feature","properties":{"name":"Millway Medical Practice"},"geometry":{"type":"Point","coordinates":[-0.2440094,51.6155345]}},{"type":"Feature","properties":{"name":"Sexey's Hospital"},"geometry":{"type":"Point","coordinates":[-2.4568141,51.1110043]}},{"type":"Feature","properties":{"name":"Tatchbury Mount Hospital"},"geometry":{"type":"Point","coordinates":[-1.5281985,50.9306376]}},{"type":"Feature","properties":{"name":"New Hall Hospital"},"geometry":{"type":"Point","coordinates":[-1.7631884,51.0325515]}},{"type":"Feature","properties":{"name":"Keynsham Health Centre"},"geometry":{"type":"Point","coordinates":[-2.4970732,51.4094798]}},{"type":"Feature","properties":{"name":"Bicester Community Hospital"},"geometry":{"type":"Point","coordinates":[-1.1582123,51.8962241]}},{"type":"Feature","properties":{"name":"Ysbyty Ystrad Fawr"},"geometry":{"type":"Point","coordinates":[-3.2345624,51.6344943]}},{"type":"Feature","properties":{"name":"Wesham Rehabilitation Centre"},"geometry":{"type":"Point","coordinates":[-2.8819273,53.7915306]}},{"type":"Feature","properties":{"name":"Bristol Royal Infirmary"},"geometry":{"type":"Point","coordinates":[-2.5960953,51.4588261]}},{"type":"Feature","properties":{"name":"Tunbridge Wells Nuffield Hospital"},"geometry":{"type":"Point","coordinates":[0.277915,51.1314227]}},{"type":"Feature","properties":{"name":"Maplewood Independent Hospital"},"geometry":{"type":"Point","coordinates":[-1.5454063,52.4457963]}},{"type":"Feature","properties":{"name":"Devonshire Neurorehabilitation Centre"},"geometry":{"type":"Point","coordinates":[-2.13189,53.3920636]}},{"type":"Feature","properties":{"name":"Coventry and Warwick Hospital"},"geometry":{"type":"Point","coordinates":[-1.5064998,52.4146084]}},{"type":"Feature","properties":{"name":"Duncan Macmillan House"},"geometry":{"type":"Point","coordinates":[-1.1276605,52.9794761]}},{"type":"Feature","properties":{"name":"Doctor Mackinnon Memorial Hospital"},"geometry":{"type":"Point","coordinates":[-5.911228,57.2463941]}},{"type":"Feature","properties":{"name":"Muckamore Abbey Hospital"},"geometry":{"type":"Point","coordinates":[-6.1878393,54.6924436]}},{"type":"Feature","properties":{"name":"Antrim Area Hospital"},"geometry":{"type":"Point","coordinates":[-6.1891332,54.7330326]}},{"type":"Feature","properties":{"name":"Holywell Hospital"},"geometry":{"type":"Point","coordinates":[-6.2076337,54.7327846]}},{"type":"Feature","properties":{"name":"Wrexham Maelor Hospital"},"geometry":{"type":"Point","coordinates":[-3.0089869,53.0473285]}},{"type":"Feature","properties":{"name":"Spire Yale Hospital"},"geometry":{"type":"Point","coordinates":[-3.0151025,53.0480363]}},{"type":"Feature","properties":{"name":"Alexandra Hospital"},"geometry":{"type":"Point","coordinates":[-1.9128333,52.2803746]}},{"type":"Feature","properties":{"name":"Airedale General Hospital"},"geometry":{"type":"Point","coordinates":[-1.9643504,53.8977208]}},{"type":"Feature","properties":{"name":"Kello Hospital"},"geometry":{"type":"Point","coordinates":[-3.5203916,55.6225558]}},{"type":"Feature","properties":{"name":"Bristol Heart Institute"},"geometry":{"type":"Point","coordinates":[-2.5969913,51.4596454]}},{"type":"Feature","properties":{"name":"Wallingford Community Hospital"},"geometry":{"type":"Point","coordinates":[-1.1276951,51.5951527]}},{"type":"Feature","properties":{"name":"James Paget University Hospital"},"geometry":{"type":"Point","coordinates":[1.7155326,52.5618298]}},{"type":"Feature","properties":{"name":"LB Healthcare"},"geometry":{"type":"Point","coordinates":[-1.257436,50.8810243]}},{"type":"Feature","properties":{"name":"St Bernards Hospital (West London Mental Health NHS Trust)"},"geometry":{"type":"Point","coordinates":[-0.3471886,51.5063644]}},{"type":"Feature","properties":{"name":"Lightburn Hospital"},"geometry":{"type":"Point","coordinates":[-4.165615,55.8608603]}},{"type":"Feature","properties":{"name":"Hoylake Cottage Care Home"},"geometry":{"type":"Point","coordinates":[-3.1710703,53.3982701]}},{"type":"Feature","properties":{"name":"Unnamed"},"geometry":{"type":"Point","coordinates":[-4.1960583,55.8525926]}},{"type":"Feature","properties":{"name":"Flagg Court Primary Care Centre"},"geometry":{"type":"Point","coordinates":[-1.4263942,54.9989662]}},{"type":"Feature","properties":{"name":"Downe Hospital"},"geometry":{"type":"Point","coordinates":[-5.6941021,54.3221659]}},{"type":"Feature","properties":{"name":"Braid Valley Care Complex"},"geometry":{"type":"Point","coordinates":[-6.272589,54.8749648]}},{"type":"Feature","properties":{"name":"The Joint Clinic - private Orthopaedic and Spinal Care"},"geometry":{"type":"Point","coordinates":[-2.1474073,52.2660587]}},{"type":"Feature","properties":{"name":"Droitwich Spa Hospital (Private)"},"geometry":{"type":"Point","coordinates":[-2.150998,52.2662733]}},{"type":"Feature","properties":{"name":"Cygnet Hospital"},"geometry":{"type":"Point","coordinates":[-0.3377958,51.5672075]}},{"type":"Feature","properties":{"name":"Helen Ley House"},"geometry":{"type":"Point","coordinates":[-1.5403168,52.3217832]}},{"type":"Feature","properties":{"name":"City Hospital"},"geometry":{"type":"Point","coordinates":[-1.1574913,52.9906441]}},{"type":"Feature","properties":{"name":"Scarborough Hospital"},"geometry":{"type":"Point","coordinates":[-0.4360362,54.2821821]}},{"type":"Feature","properties":{"name":"Alder Hey Children's Hospital"},