{"type":"FeatureCollection","features":[{"type":"Feature","properties":{"name":"Le Nautilus"},"geometry":{"type":"Point","coordinates":[3.8884121,50.58529]}},{"type":"Feature","properties":{"name":"Sea-Life Blankenberge"},"geometry":{"type":"Point","coordinates":[3.1452196,51.3176006]}},{"type":"Feature","properties":{"name":"Chez david"},"geometry":{"type":"Point","coordinates":[4.1930563,50.6829213]}},{"type":"Feature","properties":{"name":"Vijverhof"},"geometry":{"type":"Point","coordinates":[4.4785555,50.7810532]}},{"type":"Feature","properties":{"name":"Arowana"},"geometry":{"type":"Point","coordinates":[3.8604555,50.448656]}},{"type":"Feature","properties":{"name":"Riveo"},"geometry":{"type":"Point","coordinates":[5.4480196,50.2683684]}},{"type":"Feature","properties":{"name":"Aquarium"},"geometry":{"type":"Point","coordinates":[8.1439623,53.5131339]}},{"type":"Feature","properties":{"name":"Aquarium Berlin"},"geometry":{"type":"Point","coordinates":[13.3408095,52.50599]}},{"type":"Feature","properties":{"name":"Sea Life"},"geometry":{"type":"Point","coordinates":[9.6989844,52.3926484]}},{"type":"Feature","properties":{"name":"SEA LIFE Oberhausen"},"geometry":{"type":"Point","coordinates":[6.880935,51.4943338]}},{"type":"Feature","properties":{"name":"Nordsee-Aquarium Borkum"},"geometry":{"type":"Point","coordinates":[6.662069,53.5806961]}},{"type":"Feature","properties":{"name":"Aquarium"},"geometry":{"type":"Point","coordinates":[11.5579215,48.098438]}},{"type":"Feature","properties":{"name":"Sea Life Speyer"},"geometry":{"type":"Point","coordinates":[8.4473666,49.3188603]}},{"type":"Feature","properties":{"name":"Sylt Aquarium"},"geometry":{"type":"Point","coordinates":[8.2977635,54.9009947]}},{"type":"Feature","properties":{"name":"Meereszentrum Fehmarn"},"geometry":{"type":"Point","coordinates":[11.1807443,54.445848]}},{"type":"Feature","properties":{"name":"Tropenaquarium"},"geometry":{"type":"Point","coordinates":[9.9416469,53.5954061]}},{"type":"Feature","properties":{"name":"Unnamed"},"geometry":{"type":"Point","coordinates":[10.728297,53.2960583]}},{"type":"Feature","properties":{"name":"Toxotes"},"geometry":{"type":"Point","coordinates":[11.0499584,49.5923289]}},{"type":"Feature","properties":{"name":"Tetra Aquarium mit Terrarium"},"geometry":{"type":"Point","coordinates":[8.0708261,52.2519849]}},{"type":"Feature","properties":{"name":"Aquarium im Tierpark"},"geometry":{"type":"Point","coordinates":[12.6408368,51.8692516]}},{"type":"Feature","properties":{"name":"Unnamed"},"geometry":{"type":"Point","coordinates":[12.8648175,49.2769569]}},{"type":"Feature","properties":{"name":"Aquarium GEOMAR"},"geometry":{"type":"Point","coordinates":[10.1489172,54.3300018]}},{"type":"Feature","properties":{"name":"Erlebnispark Meeresaquarium"},"geometry":{"type":"Point","coordinates":[10.6539093,50.658365]}},{"type":"Feature","properties":{"name":"Sea Life Timmendorfer beach"},"geometry":{"type":"Point","coordinates":[10.7831828,53.9988025]}},{"type":"Feature","properties":{"name":"Unnamed"},"geometry":{"type":"Point","coordinates":[6.8556785,51.491527]}},{"type":"Feature","properties":{"name":"Vivarium"},"geometry":{"type":"Point","coordinates":[12.8912471,50.8499335]}},{"type":"Feature","properties":{"name":"Unnamed"},"geometry":{"type":"Point","coordinates":[6.7673993,51.4874432]}},{"type":"Feature","properties":{"name":"Tümpelgarten"},"geometry":{"type":"Point","coordinates":[9.6586542,50.5590504]}},{"type":"Feature","properties":{"name":"Meeresaquarium Nautiland"},"geometry":{"type":"Point","coordinates":[11.1767857,50.3692073]}},{"type":"Feature","properties":{"name":"Unnamed"},"geometry":{"type":"Point","coordinates":[7.7784832,48.0154208]}},{"type":"Feature","properties":{"name":"Meeresaquarium am Fichtelberg"},"geometry":{"type":"Point","coordinates":[12.9689225,50.4276677]}},{"type":"Feature","properties":{"name":"Beo, Loris, Tigerpython, Flughunde, Graue Erdnatter, Beulenkrokodil, Grüner Leguan"},"geometry":{"type":"Point","coordinates":[13.7802894,52.8230855]}},{"type":"Feature","properties":{"name":"Schilderwels, Guppy, Ringelhand-Garnele"},"geometry":{"type":"Point","coordinates":[13.780197,52.8231322]}},{"type":"Feature","properties":{"name":"Haus am See"},"geometry":{"type":"Point","coordinates":[12.3389758,49.8789342]}},{"type":"Feature","properties":{"name":"Schauaquarium der Rheinwasser-Untersuchungsstation Mainz-Wiesbaden"},"geometry":{"type":"Point","coordinates":[8.2733378,50.0054801]}},{"type":"Feature","properties":{"name":"Nordsee Aquarium"},"geometry":{"type":"Point","coordinates":[13.0970657,54.3155102]}},{"type":"Feature","properties":{"name":"Ostsee Aquarium"},"geometry":{"type":"Point","coordinates":[13.0966043,54.3158802]}},{"type":"Feature","properties":{"name":"Aquariumservice-Leipzig"},"geometry":{"type":"Point","coordinates":[12.3803139,51.1649493]}},{"type":"Feature","properties":{"name":"Unnamed"},"geometry":{"type":"Point","coordinates":[10.7025227,53.624789]}},{"type":"Feature","properties":{"name":"Homburger Aqualit"},"geometry":{"type":"Point","coordinates":[7.3406257,49.322984]}},{"type":"Feature","properties":{"name":"Aquarium im Flair"},"geometry":{"type":"Point","coordinates":[10.9895692,49.4755811]}},{"type":"Feature","properties":{"name":"Sea Life Konstanz"},"geometry":{"type":"Point","coordinates":[9.1800642,47.6569514]}},{"type":"Feature","properties":{"name":"Neocaridina & Co"},"geometry":{"type":"Point","coordinates":[6.8114828,50.8243169]}},{"type":"Feature","properties":{"name":"Koi-Center-Riepe GmbH"},"geometry":{"type":"Point","coordinates":[7.353163,53.3831765]}},{"type":"Feature","properties":{"name":"Markorallen"},"geometry":{"type":"Point","coordinates":[7.7855665,51.4612473]}},{"type":"Feature","properties":{"name":"Aquarium am Hafen"},"geometry":{"type":"Point","coordinates":[8.8634804,54.1275249]}},{"type":"Feature","properties":{"name":"Säulenaquarium aus Plexiglas"},"geometry":{"type":"Point","coordinates":[11.584859,50.9289841]}},{"type":"Feature","properties":{"name":"Unnamed"},"geometry":{"type":"Point","coordinates":[13.3138096,51.3029329]}},{"type":"Feature","properties":{"name":"SeaLife München"},"geometry":{"type":"Point","coordinates":[11.5562171,48.1738045]}},{"type":"Feature","properties":{"name":"Steinmann"},"geometry":{"type":"Point","coordinates":[7.8736224,51.2150245]}},{"type":"Feature","properties":{"name":"Gesellschaft für Aquarienkunde e.V. (Gfa)"},"geometry":{"type":"Point","coordinates":[6.7676004,51.4876622]}},{"type":"Feature","properties":{"name":"Unterwasserwelt"},"geometry":{"type":"Point","coordinates":[8.4971856,49.4816127]}},{"type":"Feature","properties":{"name":"Flugzeugwrack"},"geometry":{"type":"Point","coordinates":[9.1294738,53.7001687]}},{"type":"Feature","properties":{"name":"Unnamed"},"geometry":{"type":"Point","coordinates":[10.9312006,48.2495758]}},{"type":"Feature","properties":{"name":"Unnamed"},"geometry":{"type":"Point","coordinates":[10.1406685,48.6725709]}},{"type":"Feature","properties":{"name":"Seaquarium"},"geometry":{"type":"Point","coordinates":[4.140739,43.5271927]}},{"type":"Feature","properties":{"name":"Marineland (closed)"},"geometry":{"type":"Point","coordinates":[7.1254595,43.6153777]}},{"type":"Feature","properties":{"name":"Planet Ocean Montpellier"},"geometry":{"type":"Point","coordinates":[3.91706,43.6028748]}},{"type":"Feature","properties":{"name":"Grand Aquarium - Saint-Malo"},"geometry":{"type":"Point","coordinates":[-1.9944176,48.6194005]}},{"type":"Feature","properties":{"name":"Biodiversarium"},"geometry":{"type":"Point","coordinates":[3.1359926,42.479888]}},{"type":"Feature","properties":{"name":"Aquarium de Touraine"},"geometry":{"type":"Point","coordinates":[0.9114676,47.3879595]}},{"type":"Feature","properties":{"name":"Océarium du Croisic"},"geometry":{"type":"Point","coordinates":[-2.5237494,47.2996363]}},{"type":"Feature","properties":{"name":"Aquarium de Biarritz"},"geometry":{"type":"Point","coordinates":[-1.5676184,43.4833582]}},{"type":"Feature","properties":{"name":"Unnamed"},"geometry":{"type":"Point","coordinates":[-1.6370269,47.0976563]}},{"type":"Feature","properties":{"name":"Unnamed"},"geometry":{"type":"Point","coordinates":[-3.9872551,48.7273094]}},{"type":"Feature","properties":{"name":"Aquarium de Paris - Cinéaqua"},"geometry":{"type":"Point","coordinates":[2.2909673,48.8622173]}},{"type":"Feature","properties":{"name":"Nausicaá"},"geometry":{"type":"Point","coordinates":[1.5945542,50.7302562]}},{"type":"Feature","properties":{"name":"Aquarium de Vendée - Le Septième Continent"},"geometry":{"type":"Point","coordinates":[-1.695953,46.450555]}},{"type":"Feature","properties":{"name":"Aquarium des Lagons"},"geometry":{"type":"Point","coordinates":[166.4379763,-22.3022067]}},{"type":"Feature","properties":{"name":"Unnamed"},"geometry":{"type":"Point","coordinates":[166.437645,-22.3021198]}},{"type":"Feature","properties":{"name":"Unnamed"},"geometry":{"type":"Point","coordinates":[166.437414,-22.3024378]}},{"type":"Feature","properties":{"name":"Aquarium de La Rochelle"},"geometry":{"type":"Point","coordinates":[-1.150608,46.1532859]}},{"type":"Feature","properties":{"name":"Aquarium d'Amnéville"},"geometry":{"type":"Point","coordinates":[6.135425,49.2449815]}},{"type":"Feature","properties":{"name":"Aquarium de la Guadeloupe"},"geometry":{"type":"Point","coordinates":[-61.5230525,16.2205416]}},{"type":"Feature","properties":{"name":"Aquarium de la Réunion"},"geometry":{"type":"Point","coordinates":[55.2249977,-21.0545862]}},{"type":"Feature","properties":{"name":"Salle Aquarium"},"geometry":{"type":"Point","coordinates":[3.3004096,43.2498633]}},{"type":"Feature","properties":{"name":"Maison du Saumon et de la Rivière"},"geometry":{"type":"Point","coordinates":[3.386547,45.2901875]}},{"type":"Feature","properties":{"name":"Aquashow"},"geometry":{"type":"Point","coordinates":[-4.5353975,48.0282735]}},{"type":"Feature","properties":{"name":"Aquarium du Périgord Noir"},"geometry":{"type":"Point","coordinates":[0.9320052,44.9142351]}},{"type":"Feature","properties":{"name":"Aquarium des tropiques"},"geometry":{"type":"Point","coordinates":[4.92087,44.7623309]}},{"type":"Feature","properties":{"name":"Maison de la nature"},"geometry":{"type":"Point","coordinates":[-0.6034801,44.7706933]}},{"type":"Feature","properties":{"name":"Aquarium du Limousin"},"geometry":{"type":"Point","coordinates":[1.2599219,45.8274661]}},{"type":"Feature","properties":{"name":"Aquarium de Lyon"},"geometry":{"type":"Point","coordinates":[4.8157269,45.7279603]}},{"type":"Feature","properties":{"name":"Aquariums du Lavoir"},"geometry":{"type":"Point","coordinates":[0.3729419,46.4825233]}},{"type":"Feature","properties":{"name":"Aquarium de Biarritz"},"geometry":{"type":"Point","coordinates":[-1.5674203,43.4831833]}},{"type":"Feature","properties":{"name":"Aquarium des Lagons"},"geometry":{"type":"Point","coordinates":[166.4381417,-22.3025451]}},{"type":"Feature","properties":{"name":"Espace marin"},"geometry":{"type":"Point","coordinates":[-2.3975792,47.5964807]}},{"type":"Feature","properties":{"name":"Aquarium Oniria"},"geometry":{"type":"Point","coordinates":[3.035702,42.701852]}},{"type":"Feature","properties":{"name":"Océanopolis"},"geometry":{"type":"Point","coordinates":[-4.436154,48.3899661]}},{"type":"Feature","properties":{"name":"Sea Life Val d'Europe"},"geometry":{"type":"Point","coordinates":[2.7841177,48.8554384]}},{"type":"Feature","properties":{"name":"Lagoonarium"},"geometry":{"type":"Point","coordinates":[-151.6949336,-16.4860017]}},{"type":"Feature","properties":{"name":"Unnamed"},"geometry":{"type":"Point","coordinates":[-4.5341973,48.028321]}},{"type":"Feature","properties":{"name":"Aquarium Marin de Trégastel"},"geometry":{"type":"Point","coordinates":[-3.5140399,48.8328664]}},{"type":"Feature","properties":{"name":"Mo'orea Doplhin Center"},"geometry":{"type":"Point","coordinates":[-149.8929233,-17.489568]}},{"type":"Feature","properties":{"name":"Lagoonarium"},"geometry":{"type":"Point","coordinates":[-149.7809656,-17.5462064]}},{"type":"Feature","properties":{"name":"Observatoire aquatique"},"geometry":{"type":"Point","coordinates":[-4.0902271,48.1973751]}},{"type":"Feature","properties":{"name":"Aquarium Georges BRESSE"},"geometry":{"type":"Point","coordinates":[6.03446,47.2286191]}},{"type":"Feature","properties":{"name":"Aquarium du CE ADP d'Orly"},"geometry":{"type":"Point","coordinates":[2.3889465,48.7179812]}},{"type":"Feature","properties":{"name":"Aquarium tropical"},"geometry":{"type":"Point","coordinates":[2.4090773,48.8351982]}},{"type":"Feature","properties":{"name":"Aquaramiaud"},"geometry":{"type":"Point","coordinates":[4.5329674,45.4692544]}},{"type":"Feature","properties":{"name":"Maison Aquarium val de Besbre"},"geometry":{"type":"Point","coordinates":[3.5932811,46.382039]}},{"type":"Feature","properties":{"name":"L'aquarium des curieux de nature"},"geometry":{"type":"Point","coordinates":[-3.3951633,48.5430566]}},{"type":"Feature","properties":{"name":"Aquarium La Madrague"},"geometry":{"type":"Point","coordinates":[5.6940944,43.1658339]}},{"type":"Feature","properties":{"name":"Les poissons du lac Tanganyika"},"geometry":{"type":"Point","coordinates":[1.3493494,47.2486251]}},{"type":"Feature","properties":{"name":"3 Requins d'Australie"},"geometry":{"type":"Point","coordinates":[-2.5244908,47.2994187]}},{"type":"Feature","properties":{"name":"4 Raies du Pacifique"},"geometry":{"type":"Point","coordinates":[-2.5242232,47.2992456]}},{"type":"Feature","properties":{"name":"Loch Lomond Sea Life Centre"},"geometry":{"type":"Point","coordinates":[-4.5910984,56.0058435]}},{"type":"Feature","properties":{"name":"The Deep"},"geometry":{"type":"Point","coordinates":[-0.3305242,53.7387152]}},{"type":"Feature","properties":{"name":"Bristol Aquarium"},"geometry":{"type":"Point","coordinates":[-2.5991303,51.4508757]}},{"type":"Feature","properties":{"name":"National Sea Life Centre"},"geometry":{"type":"Point","coordinates":[-1.9135267,52.4787968]}},{"type":"Feature","properties":{"name":"Blue Planet Aquarium"},"geometry":{"type":"Point","coordinates":[-2.8870172,53.2620719]}},{"type":"Feature","properties":{"name":"Lakes Aquarium"},"geometry":{"type":"Point","coordinates":[-2.9559061,54.2781629]}},{"type":"Feature","properties":{"name":"Aquarium"},"geometry":{"type":"Point","coordinates":[-2.8772107,53.2272224]}},{"type":"Feature","properties":{"name":"National Marine Aquarium"},"geometry":{"type":"Point","coordinates":[-4.1308286,50.3666915]}},{"type":"Feature","properties":{"name":"Blue Reef Aquarium"},"geometry":{"type":"Point","coordinates":[-1.0927855,50.7801308]}},{"type":"Feature","properties":{"name":"Blue Reef Aquarium Tynemouth"},"geometry":{"type":"Point","coordinates":[-1.4304023,55.0277273]}},{"type":"Feature","properties":{"name":"Blue Reef Aquarium"},"geometry":{"type":"Point","coordinates":[0.5962147,50.8560006]}},{"type":"Feature","properties":{"name":"Sea Life Centre"},"geometry":{"type":"Point","coordinates":[-0.1359727,50.8195967]}},{"type":"Feature","properties":{"name":"Oceanarium"},"geometry":{"type":"Point","coordinates":[-1.8768071,50.7159194]}},{"type":"Feature","properties":{"name":"Brighton Aquarium"},"geometry":{"type":"Point","coordinates":[-0.1342091,50.8195105]}},{"type":"Feature","properties":{"name":"Macduff Marine Aquarium"},"geometry":{"type":"Point","coordinates":[-2.4916993,57.6719854]}},{"type":"Feature","properties":{"name":"Sea Life Adventure Aquarium"},"geometry":{"type":"Point","coordinates":[0.7264506,51.5315858]}},{"type":"Feature","properties":{"name":"Blue Reef Aquarium"},"geometry":{"type":"Point","coordinates":[-5.0838218,50.4147959]}},{"type":"Feature","properties":{"name":"SEA LIFE Blackpool"},"geometry":{"type":"Point","coordinates":[-3.0549079,53.8128806]}},{"type":"Feature","properties":{"name":"Skegness Aquarium"},"geometry":{"type":"Point","coordinates":[0.3447517,53.1410547]}},{"type":"Feature","properties":{"name":"Unnamed"},"geometry":{"type":"Point","coordinates":[-4.2791517,53.163764]}},{"type":"Feature","properties":{"name":"The Sealife Centre"},"geometry":{"type":"Point","coordinates":[1.7366298,52.6003159]}},{"type":"Feature","properties":{"name":"Sea Life Centre"},"geometry":{"type":"Point","coordinates":[0.4833205,52.9349637]}},{"type":"Feature","properties":{"name":"Aquarium"},"geometry":{"type":"Point","coordinates":[-0.8058976,54.2082673]}},{"type":"Feature","properties":{"name":"St Andrews Aquarium"},"geometry":{"type":"Point","coordinates":[-2.7996954,56.3436715]}},{"type":"Feature","properties":{"name":"Lyme Regis Marine Aquarium"},"geometry":{"type":"Point","coordinates":[-2.9371983,50.7193756]}},{"type":"Feature","properties":{"name":"London Aquarium"},"geometry":{"type":"Point","coordinates":[-0.1185929,51.5028354]}},{"type":"Feature","properties":{"name":"Unnamed"},"geometry":{"type":"Point","coordinates":[-2.445094,50.6254651]}},{"type":"Feature","properties":{"name":"Rainforest"},"geometry":{"type":"Point","coordinates":[-2.4443288,50.6252444]}},{"type":"Feature","properties":{"name":"Harbourside"},"geometry":{"type":"Point","coordinates":[-2.444128,50.6254534]}},{"type":"Feature","properties":{"name":"Tropical lagoon"},"geometry":{"type":"Point","coordinates":[-2.443965,50.6251747]}},{"type":"Feature","properties":{"name":"Seahorses"},"geometry":{"type":"Point","coordinates":[-2.4445213,50.6256457]}},{"type":"Feature","properties":{"name":"Unnamed"},"geometry":{"type":"Point","coordinates":[-2.4445676,50.6257979]}},{"type":"Feature","properties":{"name":"Unnamed"},"geometry":{"type":"Point","coordinates":[-2.4447484,50.6259426]}},{"type":"Feature","properties":{"name":"Lake District Coast Aquarium"},"geometry":{"type":"Point","coordinates":[-3.502953,54.7150294]}},{"type":"Feature","properties":{"name":"Hunstanton Sea Life Centre"},"geometry":{"type":"Point","coordinates":[0.4833363,52.9348995]}},{"type":"Feature","properties":{"name":"Chessington Sea Life Centre"},"geometry":{"type":"Point","coordinates":[-0.3159038,51.3496203]}},{"type":"Feature","properties":{"name":"Deep Sea World"},"geometry":{"type":"Point","coordinates":[-3.3911366,56.0083448]}},{"type":"Feature","properties":{"name":"Anglesey Sea Zoo"},"geometry":{"type":"Point","coordinates":[-4.2787945,53.1638103]}},{"type":"Feature","properties":{"name":"Mevagissey Marine Aquarium"},"geometry":{"type":"Point","coordinates":[-4.7854431,50.2687395]}},{"type":"Feature","properties":{"name":"Deep Sea Adventure"},"geometry":{"type":"Point","coordinates":[-0.647783,51.4654237]}},{"type":"Feature","properties":{"name":"Logan Fish Pond"},"geometry":{"type":"Point","coordinates":[-4.9644161,54.7305571]}},{"type":"Feature","properties":{"name":"SEA LIFE Scarborough"},"geometry":{"type":"Point","coordinates":[-0.409847,54.3011743]}},{"type":"Feature","properties":{"name":"Matlock Bath Aquarium"},"geometry":{"type":"Point","coordinates":[-1.5624419,53.1214672]}},{"type":"Feature","properties":{"name":"Aquarium"},"geometry":{"type":"Point","coordinates":[-0.5419948,51.8482871]}},{"type":"Feature","properties":{"name":"Sea Life Manchester"},"geometry":{"type":"Point","coordinates":[-2.3410046,53.4677934]}},{"type":"Feature","properties":{"name":"Ilfracombe Aquarium"},"geometry":{"type":"Point","coordinates":[-4.1131918,51.2108255]}},{"type":"Feature","properties":{"name":"Exploris Aquarium"},"geometry":{"type":"Point","coordinates":[-5.5490901,54.3817134]}},{"type":"Feature","properties":{"name":"Bolton Aquarium"},"geometry":{"type":"Point","coordinates":[-2.4314621,53.5773778]}},{"type":"Feature","properties":{"name":"Fowey Aquarium"},"geometry":{"type":"Point","coordinates":[-4.6346099,50.3350937]}},{"type":"Feature","properties":{"name":"SEA LIFE Aquarium London"},"geometry":{"type":"Point","coordinates":[-0.1194656,51.5016258]}},{"type":"Feature","properties":{"name":"Marine Discovery Centre"},"geometry":{"type":"Point","coordinates":[-0.6147669,54.4886828]}},{"type":"Feature","properties":{"name":"Elite Koi"},"geometry":{"type":"Point","coordinates":[-0.0929158,53.5727674]}},{"type":"Feature","properties":{"name":"Dock Koi"},"geometry":{"type":"Point","coordinates":[-0.0210421,53.5054393]}},{"type":"Feature","properties":{"name":"Paraquatics"},"geometry":{"type":"Point","coordinates":[-0.190739,50.8338554]}},{"type":"Feature","properties":{"name":"Aquarium Wasserbillig"},"geometry":{"type":"Point","coordinates":[6.5022387,49.7180028]}},{"type":"Feature","properties":{"name":"Bluereef Aquarium"},"geometry":{"type":"Point","coordinates":[3.7164534,51.6378174]}},{"type":"Feature","properties":{"name":"Curaçao Sea Aquarium"},"geometry":{"type":"Point","coordinates":[-68.8963311,12.0839744]}},{"type":"Feature","properties":{"name":"SEA LIFE Scheveningen"},"geometry":{"type":"Point","coordinates":[4.279256,52.112366]}},{"type":"Feature","properties":{"name":"Zee-Aquarium"},"geometry":{"type":"Point","coordinates":[4.629312,52.6604313]}},{"type":"Feature","properties":{"name":"Aqua Zoo Leerdam"},"geometry":{"type":"Point","coordinates":[5.1078705,51.8910898]}},{"type":"Feature","properties":{"name":"MuzeeAquarium"},"geometry":{"type":"Point","coordinates":[6.92742,53.3357958]}},{"type":"Feature","properties":{"name":"Fort Kijkduin Aquarium"},"geometry":{"type":"Point","coordinates":[4.7220431,52.9508172]}},{"type":"Feature","properties":{"name":"Unnamed"},"geometry":{"type":"Point","coordinates":[5.4005308,51.5295202]}}]}