{"type":"FeatureCollection","features":[{"type":"Feature","properties":{"name":"Swindon"},"geometry":{"type":"Point","coordinates":[-1.7852844,51.5657001]}},{"type":"Feature","properties":{"name":"Royston"},"geometry":{"type":"Point","coordinates":[-0.0269749,52.0532089]}},{"type":"Feature","properties":{"name":"Beaulieu Road"},"geometry":{"type":"Point","coordinates":[-1.5049707,50.8550478]}},{"type":"Feature","properties":{"name":"Sway"},"geometry":{"type":"Point","coordinates":[-1.6099505,50.7847131]}},{"type":"Feature","properties":{"name":"New Milton"},"geometry":{"type":"Point","coordinates":[-1.6576697,50.7557623]}},{"type":"Feature","properties":{"name":"Canley"},"geometry":{"type":"Point","coordinates":[-1.5475333,52.3993806]}},{"type":"Feature","properties":{"name":"Rhyl"},"geometry":{"type":"Point","coordinates":[-3.4887917,53.3181979]}},{"type":"Feature","properties":{"name":"Sandal and Agbrigg"},"geometry":{"type":"Point","coordinates":[-1.480623,53.6628109]}},{"type":"Feature","properties":{"name":"Wellingborough"},"geometry":{"type":"Point","coordinates":[-0.6762814,52.3037832]}},{"type":"Feature","properties":{"name":"Ulleskelf"},"geometry":{"type":"Point","coordinates":[-1.2143782,53.853331]}},{"type":"Feature","properties":{"name":"Adwick"},"geometry":{"type":"Point","coordinates":[-1.1798897,53.5719324]}},{"type":"Feature","properties":{"name":"Elsecar"},"geometry":{"type":"Point","coordinates":[-1.427499,53.4986826]}},{"type":"Feature","properties":{"name":"Dodworth"},"geometry":{"type":"Point","coordinates":[-1.5320346,53.5442059]}},{"type":"Feature","properties":{"name":"Bursledon"},"geometry":{"type":"Point","coordinates":[-1.305111,50.8835729]}},{"type":"Feature","properties":{"name":"Walton-on-Thames"},"geometry":{"type":"Point","coordinates":[-0.4143083,51.3728758]}},{"type":"Feature","properties":{"name":"Erdington"},"geometry":{"type":"Point","coordinates":[-1.8394444,52.5283826]}},{"type":"Feature","properties":{"name":"Chester Road"},"geometry":{"type":"Point","coordinates":[-1.8324115,52.5359496]}},{"type":"Feature","properties":{"name":"Sutton Coldfield"},"geometry":{"type":"Point","coordinates":[-1.8251772,52.564801]}},{"type":"Feature","properties":{"name":"Gravelly Hill"},"geometry":{"type":"Point","coordinates":[-1.8527437,52.5153884]}},{"type":"Feature","properties":{"name":"Ardwick"},"geometry":{"type":"Point","coordinates":[-2.2132093,53.4711613]}},{"type":"Feature","properties":{"name":"Romsey"},"geometry":{"type":"Point","coordinates":[-1.4932507,50.9927043]}},{"type":"Feature","properties":{"name":"Mottisfont & Dunbridge"},"geometry":{"type":"Point","coordinates":[-1.5466785,51.0338154]}},{"type":"Feature","properties":{"name":"Shepherd's Bush Market"},"geometry":{"type":"Point","coordinates":[-0.2263134,51.50607]}},{"type":"Feature","properties":{"name":"Maidenhead"},"geometry":{"type":"Point","coordinates":[-0.722846,51.5183532]}},{"type":"Feature","properties":{"name":"West Drayton"},"geometry":{"type":"Point","coordinates":[-0.4718293,51.5097364]}},{"type":"Feature","properties":{"name":"Finchley Central"},"geometry":{"type":"Point","coordinates":[-0.192318,51.6008355]}},{"type":"Feature","properties":{"name":"Hedge End"},"geometry":{"type":"Point","coordinates":[-1.2944932,50.9323988]}},{"type":"Feature","properties":{"name":"Butlers Lane"},"geometry":{"type":"Point","coordinates":[-1.8383926,52.5926207]}},{"type":"Feature","properties":{"name":"Kettering"},"geometry":{"type":"Point","coordinates":[-0.7320452,52.3934872]}},{"type":"Feature","properties":{"name":"Ryde St John's Road"},"geometry":{"type":"Point","coordinates":[-1.1566159,50.7241835]}},{"type":"Feature","properties":{"name":"Brading"},"geometry":{"type":"Point","coordinates":[-1.1386031,50.6783048]}},{"type":"Feature","properties":{"name":"Smallbrook Junction"},"geometry":{"type":"Point","coordinates":[-1.1549982,50.7114652]}},{"type":"Feature","properties":{"name":"Havenstreet"},"geometry":{"type":"Point","coordinates":[-1.2146336,50.7054566]}},{"type":"Feature","properties":{"name":"Dean"},"geometry":{"type":"Point","coordinates":[-1.633916,51.0423679]}},{"type":"Feature","properties":{"name":"Lydney"},"geometry":{"type":"Point","coordinates":[-2.5304821,51.7142815]}},{"type":"Feature","properties":{"name":"Botley"},"geometry":{"type":"Point","coordinates":[-1.2590525,50.9163612]}},{"type":"Feature","properties":{"name":"Culham"},"geometry":{"type":"Point","coordinates":[-1.2365761,51.6538921]}},{"type":"Feature","properties":{"name":"Appleford"},"geometry":{"type":"Point","coordinates":[-1.2424741,51.6394882]}},{"type":"Feature","properties":{"name":"St Mary Cray"},"geometry":{"type":"Point","coordinates":[0.1057186,51.394738]}},{"type":"Feature","properties":{"name":"Hamble"},"geometry":{"type":"Point","coordinates":[-1.3289942,50.8712423]}},{"type":"Feature","properties":{"name":"Llandudno Junction"},"geometry":{"type":"Point","coordinates":[-3.8086287,53.2838623]}},{"type":"Feature","properties":{"name":"Flint"},"geometry":{"type":"Point","coordinates":[-3.1324867,53.2496833]}},{"type":"Feature","properties":{"name":"Shotton"},"geometry":{"type":"Point","coordinates":[-3.0371817,53.2136891]}},{"type":"Feature","properties":{"name":"Acton Bridge"},"geometry":{"type":"Point","coordinates":[-2.6027539,53.2663135]}},{"type":"Feature","properties":{"name":"Carlisle"},"geometry":{"type":"Point","coordinates":[-2.9330473,54.8902575]}},{"type":"Feature","properties":{"name":"Carluke"},"geometry":{"type":"Point","coordinates":[-3.8489342,55.7311168]}},{"type":"Feature","properties":{"name":"Newton"},"geometry":{"type":"Point","coordinates":[-4.1335767,55.8188409]}},{"type":"Feature","properties":{"name":"Combe"},"geometry":{"type":"Point","coordinates":[-1.3939977,51.8326251]}},{"type":"Feature","properties":{"name":"Shipton"},"geometry":{"type":"Point","coordinates":[-1.5926475,51.8659832]}},{"type":"Feature","properties":{"name":"Finstock"},"geometry":{"type":"Point","coordinates":[-1.4696045,51.8528179]}},{"type":"Feature","properties":{"name":"Portchester"},"geometry":{"type":"Point","coordinates":[-1.125024,50.8488504]}},{"type":"Feature","properties":{"name":"Alresford"},"geometry":{"type":"Point","coordinates":[-1.1610285,51.0883048]}},{"type":"Feature","properties":{"name":"Pickering"},"geometry":{"type":"Point","coordinates":[-0.7784454,54.2472695]}},{"type":"Feature","properties":{"name":"Levisham"},"geometry":{"type":"Point","coordinates":[-0.7443884,54.3082776]}},{"type":"Feature","properties":{"name":"Newton Dale Halt"},"geometry":{"type":"Point","coordinates":[-0.7175713,54.3424692]}},{"type":"Feature","properties":{"name":"Goathland"},"geometry":{"type":"Point","coordinates":[-0.7120943,54.4005905]}},{"type":"Feature","properties":{"name":"Grosmont"},"geometry":{"type":"Point","coordinates":[-0.7248417,54.4361695]}},{"type":"Feature","properties":{"name":"Settle"},"geometry":{"type":"Point","coordinates":[-2.2808342,54.0669551]}},{"type":"Feature","properties":{"name":"Water Orton"},"geometry":{"type":"Point","coordinates":[-1.743655,52.5185309]}},{"type":"Feature","properties":{"name":"Mill Hill Broadway"},"geometry":{"type":"Point","coordinates":[-0.2488001,51.6126689]}},{"type":"Feature","properties":{"name":"Catford"},"geometry":{"type":"Point","coordinates":[-0.0261521,51.4444696]}},{"type":"Feature","properties":{"name":"Cosham"},"geometry":{"type":"Point","coordinates":[-1.0673875,50.8418849]}},{"type":"Feature","properties":{"name":"Ellesmere Port"},"geometry":{"type":"Point","coordinates":[-2.8960456,53.2821114]}},{"type":"Feature","properties":{"name":"Corfe Castle"},"geometry":{"type":"Point","coordinates":[-2.0549484,50.6382716]}},{"type":"Feature","properties":{"name":"Harman's Cross"},"geometry":{"type":"Point","coordinates":[-2.0265551,50.6197911]}},{"type":"Feature","properties":{"name":"Herston Halt"},"geometry":{"type":"Point","coordinates":[-1.9804011,50.6130644]}},{"type":"Feature","properties":{"name":"Littlehaven"},"geometry":{"type":"Point","coordinates":[-0.3086034,51.0793356]}},{"type":"Feature","properties":{"name":"Faygate"},"geometry":{"type":"Point","coordinates":[-0.2630067,51.0959458]}},{"type":"Feature","properties":{"name":"Ifield"},"geometry":{"type":"Point","coordinates":[-0.2144647,51.1155376]}},{"type":"Feature","properties":{"name":"Gatwick Airport"},"geometry":{"type":"Point","coordinates":[-0.1609224,51.1567346]}},{"type":"Feature","properties":{"name":"Hassocks"},"geometry":{"type":"Point","coordinates":[-0.1457168,50.9247179]}},{"type":"Feature","properties":{"name":"Islip"},"geometry":{"type":"Point","coordinates":[-1.2376466,51.826163]}},{"type":"Feature","properties":{"name":"Bicester Village"},"geometry":{"type":"Point","coordinates":[-1.1493759,51.8924126]}},{"type":"Feature","properties":{"name":"Sloane Square"},"geometry":{"type":"Point","coordinates":[-0.1558767,51.4922264]}},{"type":"Feature","properties":{"name":"Wokingham"},"geometry":{"type":"Point","coordinates":[-0.8429813,51.4119036]}},{"type":"Feature","properties":{"name":"Blackwater"},"geometry":{"type":"Point","coordinates":[-0.776776,51.3315657]}},{"type":"Feature","properties":{"name":"Ascott-under-Wychwood"},"geometry":{"type":"Point","coordinates":[-1.5639687,51.8674576]}},{"type":"Feature","properties":{"name":"Cheltenham Racecourse"},"geometry":{"type":"Point","coordinates":[-2.0675337,51.9244805]}},{"type":"Feature","properties":{"name":"Netley"},"geometry":{"type":"Point","coordinates":[-1.3417907,50.8750016]}},{"type":"Feature","properties":{"name":"Helsby"},"geometry":{"type":"Point","coordinates":[-2.7711482,53.2752889]}},{"type":"Feature","properties":{"name":"Patchway"},"geometry":{"type":"Point","coordinates":[-2.5623447,51.5258271]}},{"type":"Feature","properties":{"name":"Hinton Admiral"},"geometry":{"type":"Point","coordinates":[-1.7136258,50.752603]}},{"type":"Feature","properties":{"name":"Yate"},"geometry":{"type":"Point","coordinates":[-2.4321734,51.5413993]}},{"type":"Feature","properties":{"name":"Fratton"},"geometry":{"type":"Point","coordinates":[-1.0732559,50.7964461]}},{"type":"Feature","properties":{"name":"Bicester North"},"geometry":{"type":"Point","coordinates":[-1.149781,51.9032906]}},{"type":"Feature","properties":{"name":"Gomshall"},"geometry":{"type":"Point","coordinates":[-0.4422487,51.2192418]}},{"type":"Feature","properties":{"name":"Trowbridge"},"geometry":{"type":"Point","coordinates":[-2.2143313,51.3200055]}},{"type":"Feature","properties":{"name":"Ashurst"},"geometry":{"type":"Point","coordinates":[0.1526024,51.1284231]}},{"type":"Feature","properties":{"name":"Cyprus"},"geometry":{"type":"Point","coordinates":[0.0639692,51.5084776]}},{"type":"Feature","properties":{"name":"Wimbledon"},"geometry":{"type":"Point","coordinates":[-0.2052107,51.4220252]}},{"type":"Feature","properties":{"name":"Caldicot"},"geometry":{"type":"Point","coordinates":[-2.7597685,51.5845063]}},{"type":"Feature","properties":{"name":"Stamford"},"geometry":{"type":"Point","coordinates":[-0.4800873,52.647832]}},{"type":"Feature","properties":{"name":"Mansion House"},"geometry":{"type":"Point","coordinates":[-0.0952228,51.5118924]}},{"type":"Feature","properties":{"name":"Narborough"},"geometry":{"type":"Point","coordinates":[-1.2028089,52.571375]}},{"type":"Feature","properties":{"name":"Oxenhope"},"geometry":{"type":"Point","coordinates":[-1.9524846,53.8149232]}},{"type":"Feature","properties":{"name":"Northolt Park"},"geometry":{"type":"Point","coordinates":[-0.3594179,51.5574778]}},{"type":"Feature","properties":{"name":"North Harrow"},"geometry":{"type":"Point","coordinates":[-0.3631762,51.5851618]}},{"type":"Feature","properties":{"name":"Penshurst"},"geometry":{"type":"Point","coordinates":[0.1731809,51.1972733]}},{"type":"Feature","properties":{"name":"Pokesdown"},"geometry":{"type":"Point","coordinates":[-1.8267335,50.7311874]}},{"type":"Feature","properties":{"name":"Parkstone"},"geometry":{"type":"Point","coordinates":[-1.9478482,50.7229607]}},{"type":"Feature","properties":{"name":"Branksome"},"geometry":{"type":"Point","coordinates":[-1.9193721,50.7270327]}},{"type":"Feature","properties":{"name":"Poole"},"geometry":{"type":"Point","coordinates":[-1.98364,50.7193206]}},{"type":"Feature","properties":{"name":"Holton Heath"},"geometry":{"type":"Point","coordinates":[-2.0776204,50.7115682]}},{"type":"Feature","properties":{"name":"Milford Haven"},"geometry":{"type":"Point","coordinates":[-5.0414474,51.7157699]}},{"type":"Feature","properties":{"name":"Johnston"},"geometry":{"type":"Point","coordinates":[-4.9967193,51.7562757]}},{"type":"Feature","properties":{"name":"Haverfordwest"},"geometry":{"type":"Point","coordinates":[-4.960232,51.8026795]}},{"type":"Feature","properties":{"name":"Fishguard Harbour"},"geometry":{"type":"Point","coordinates":[-4.986173,52.0106917]}},{"type":"Feature","properties":{"name":"Styal"},"geometry":{"type":"Point","coordinates":[-2.2402077,53.3482461]}},{"type":"Feature","properties":{"name":"Chirk"},"geometry":{"type":"Point","coordinates":[-3.06615,52.9332472]}},{"type":"Feature","properties":{"name":"Ruabon"},"geometry":{"type":"Point","coordinates":[-3.0433414,52.98724]}},{"type":"Feature","properties":{"name":"Bourne End"},"geometry":{"type":"Point","coordinates":[-0.710798,51.5769144]}},{"type":"Feature","properties":{"name":"Clarbeston Road"},"geometry":{"type":"Point","coordinates":[-4.8821559,51.851741]}},{"type":"Feature","properties":{"name":"Harrow & Wealdstone"},"geometry":{"type":"Point","coordinates":[-0.3348748,51.5922178]}},{"type":"Feature","properties":{"name":"Kings Langley"},"geometry":{"type":"Point","coordinates":[-0.4379165,51.7063008]}},{"type":"Feature","properties":{"name":"Clunderwen"},"geometry":{"type":"Point","coordinates":[-4.7310195,51.8401054]}},{"type":"Feature","properties":{"name":"Whitland"},"geometry":{"type":"Point","coordinates":[-4.6149893,51.818025]}},{"type":"Feature","properties":{"name":"Skegness"},"geometry":{"type":"Point","coordinates":[0.3345214,53.1431867]}},{"type":"Feature","properties":{"name":"Havenhouse"},"geometry":{"type":"Point","coordinates":[0.2729912,53.1146157]}},{"type":"Feature","properties":{"name":"Wainfleet"},"geometry":{"type":"Point","coordinates":[0.2345795,53.105157]}},{"type":"Feature","properties":{"name":"Boston"},"geometry":{"type":"Point","coordinates":[-0.0313195,52.978108]}},{"type":"Feature","properties":{"name":"Reigate"},"geometry":{"type":"Point","coordinates":[-0.2038369,51.2418815]}},{"type":"Feature","properties":{"name":"Kilgetty"},"geometry":{"type":"Point","coordinates":[-4.7143858,51.7322009]}},{"type":"Feature","properties":{"name":"Tenby"},"geometry":{"type":"Point","coordinates":[-4.7067395,51.6729708]}},{"type":"Feature","properties":{"name":"Penally"},"geometry":{"type":"Point","coordinates":[-4.7219994,51.6589419]}},{"type":"Feature","properties":{"name":"Manorbier"},"geometry":{"type":"Point","coordinates":[-4.7927577,51.6602508]}},{"type":"Feature","properties":{"name":"Lamphey"},"geometry":{"type":"Point","coordinates":[-4.8728813,51.6671229]}},{"type":"Feature","properties":{"name":"Pembroke"},"geometry":{"type":"Point","coordinates":[-4.9064447,51.6730613]}},{"type":"Feature","properties":{"name":"Wallyford"},"geometry":{"type":"Point","coordinates":[-3.0147883,55.9404591]}},{"type":"Feature","properties":{"name":"Longniddry"},"geometry":{"type":"Point","coordinates":[-2.8886468,55.9762365]}},{"type":"Feature","properties":{"name":"Drem"},"geometry":{"type":"Point","coordinates":[-2.7853021,56.0051337]}},{"type":"Feature","properties":{"name":"Dunbar"},"geometry":{"type":"Point","coordinates":[-2.5136844,55.9982113]}},{"type":"Feature","properties":{"name":"North Ealing"},"geometry":{"type":"Point","coordinates":[-0.2887523,51.5174885]}},{"type":"Feature","properties":{"name":"St Albans Abbey"},"geometry":{"type":"Point","coordinates":[-0.342528,51.7446585]}},{"type":"Feature","properties":{"name":"Park Street"},"geometry":{"type":"Point","coordinates":[-0.3400687,51.7256643]}},{"type":"Feature","properties":{"name":"Bricket Wood"},"geometry":{"type":"Point","coordinates":[-0.3591176,51.7055662]}},{"type":"Feature","properties":{"name":"Garston"},"geometry":{"type":"Point","coordinates":[-0.3818122,51.6865229]}},{"type":"Feature","properties":{"name":"Watford North"},"geometry":{"type":"Point","coordinates":[-0.3902879,51.6750417]}},{"type":"Feature","properties":{"name":"How Wood"},"geometry":{"type":"Point","coordinates":[-0.3449434,51.7173665]}},{"type":"Feature","properties":{"name":"Carmarthen"},"geometry":{"type":"Point","coordinates":[-4.3057649,51.8533058]}},{"type":"Feature","properties":{"name":"Alnmouth"},"geometry":{"type":"Point","coordinates":[-1.6367716,55.392793]}},{"type":"Feature","properties":{"name":"Berwick-upon-Tweed"},"geometry":{"type":"Point","coordinates":[-2.0105423,55.7745555]}},{"type":"Feature","properties":{"name":"Chathill"},"geometry":{"type":"Point","coordinates":[-1.7066521,55.5367261]}},{"type":"Feature","properties":{"name":"Loughborough Central"},"geometry":{"type":"Point","coordinates":[-1.1959184,52.7690651]}},{"type":"Feature","properties":{"name":"Pembrey and Burry Port"},"geometry":{"type":"Point","coordinates":[-4.2489624,51.6840593]}},{"type":"Feature","properties":{"name":"Kidwelly"},"geometry":{"type":"Point","coordinates":[-4.3176545,51.7343994]}},{"type":"Feature","properties":{"name":"Llanelli"},"geometry":{"type":"Point","coordinates":[-4.1610727,51.6737797]}},{"type":"Feature","properties":{"name":"Ferryside"},"geometry":{"type":"Point","coordinates":[-4.3695963,51.7682462]}},{"type":"Feature","properties":{"name":"Port Talbot Parkway"},"geometry":{"type":"Point","coordinates":[-3.7817162,51.5924394]}},{"type":"Feature","properties":{"name":"Briton Ferry"},"geometry":{"type":"Point","coordinates":[-3.8199836,51.6381217]}},{"type":"Feature","properties":{"name":"Bridgend"},"geometry":{"type":"Point","coordinates":[-3.5752586,51.5071098]}},{"type":"Feature","properties":{"name":"Pyle"},"geometry":{"type":"Point","coordinates":[-3.6976606,51.52536]}},{"type":"Feature","properties":{"name":"Llanharan"},"geometry":{"type":"Point","coordinates":[-3.4416549,51.5376296]}},{"type":"Feature","properties":{"name":"Pontyclun"},"geometry":{"type":"Point","coordinates":[-3.3920553,51.5238395]}},{"type":"Feature","properties":{"name":"Aberystwyth"},"geometry":{"type":"Point","coordinates":[-4.0815468,52.4138938]}},{"type":"Feature","properties":{"name":"Borth"},"geometry":{"type":"Point","coordinates":[-4.0496662,52.4909831]}},{"type":"Feature","properties":{"name":"Dovey Junction"},"geometry":{"type":"Point","coordinates":[-3.9237919,52.564764]}},{"type":"Feature","properties":{"name":"Machynlleth"},"geometry":{"type":"Point","coordinates":[-3.8548131,52.5951801]}},{"type":"Feature","properties":{"name":"Brighton"},"geometry":{"type":"Point","coordinates":[-0.1407393,50.8288602]}},{"type":"Feature","properties":{"name":"Caersws"},"geometry":{"type":"Point","coordinates":[-3.4325953,52.5161395]}},{"type":"Feature","properties":{"name":"Newtown"},"geometry":{"type":"Point","coordinates":[-3.3114829,52.5122378]}},{"type":"Feature","properties":{"name":"Welshpool"},"geometry":{"type":"Point","coordinates":[-3.1394424,52.6580323]}},{"type":"Feature","properties":{"name":"Dullingham"},"geometry":{"type":"Point","coordinates":[0.3658792,52.2015139]}},{"type":"Feature","properties":{"name":"MetroCentre"},"geometry":{"type":"Point","coordinates":[-1.664932,54.9588888]}},{"type":"Feature","properties":{"name":"Armathwaite"},"geometry":{"type":"Point","coordinates":[-2.7720801,54.809435]}},{"type":"Feature","properties":{"name":"Lazonby and Kirkoswald"},"geometry":{"type":"Point","coordinates":[-2.7036908,54.7508153]}},{"type":"Feature","properties":{"name":"Langwathby"},"geometry":{"type":"Point","coordinates":[-2.6635574,54.6943632]}},{"type":"Feature","properties":{"name":"Garsdale"},"geometry":{"type":"Point","coordinates":[-2.3263682,54.3214617]}},{"type":"Feature","properties":{"name":"Dent"},"geometry":{"type":"Point","coordinates":[-2.3636343,54.2825661]}},{"type":"Feature","properties":{"name":"Ribblehead"},"geometry":{"type":"Point","coordinates":[-2.3607303,54.2056394]}},{"type":"Feature","properties":{"name":"Horton-in-Ribblesdale"},"geometry":{"type":"Point","coordinates":[-2.3020982,54.149217]}},{"type":"Feature","properties":{"name":"Preston Park"},"geometry":{"type":"Point","coordinates":[-0.1553443,50.8460091]}},{"type":"Feature","properties":{"name":"Baldock"},"geometry":{"type":"Point","coordinates":[-0.1875624,51.9929714]}},{"type":"Feature","properties":{"name":"Hatton"},"geometry":{"type":"Point","coordinates":[-1.6729046,52.2951979]}},{"type":"Feature","properties":{"name":"Lapworth"},"geometry":{"type":"Point","coordinates":[-1.7258138,52.3418029]}},{"type":"Feature","properties":{"name":"Dorridge"},"geometry":{"type":"Point","coordinates":[-1.7528556,52.371854]}},{"type":"Feature","properties":{"name":"Widney Manor"},"geometry":{"type":"Point","coordinates":[-1.7742431,52.3960285]}},{"type":"Feature","properties":{"name":"Solihull"},"geometry":{"type":"Point","coordinates":[-1.7888672,52.4146286]}},{"type":"Feature","properties":{"name":"Bordesley"},"geometry":{"type":"Point","coordinates":[-1.877661,52.4722127]}},{"type":"Feature","properties":{"name":"Birmingham Snow Hill"},"geometry":{"type":"Point","coordinates":[-1.8996588,52.4837984]}},{"type":"Feature","properties":{"name":"Rugby"},"geometry":{"type":"Point","coordinates":[-1.2502743,52.3790353]}},{"type":"Feature","properties":{"name":"Watford High Street"},"geometry":{"type":"Point","coordinates":[-0.3924982,51.6522296]}},{"type":"Feature","properties":{"name":"Fenny Stratford"},"geometry":{"type":"Point","coordinates":[-0.7179834,51.9999805]}},{"type":"Feature","properties":{"name":"Staveley"},"geometry":{"type":"Point","coordinates":[-2.8190719,54.3756184]}},{"type":"Feature","properties":{"name":"Monks Risborough"},"geometry":{"type":"Point","coordinates":[-0.8293176,51.7358193]}},{"type":"Feature","properties":{"name":"Haddenham and Thame Parkway"},"geometry":{"type":"Point","coordinates":[-0.9420743,51.7709259]}},{"type":"Feature","properties":{"name":"Saunderton"},"geometry":{"type":"Point","coordinates":[-0.8253668,51.6758974]}},{"type":"Feature","properties":{"name":"Gerrards Cross"},"geometry":{"type":"Point","coordinates":[-0.5549256,51.5887853]}},{"type":"Feature","properties":{"name":"Denham Golf Club"},"geometry":{"type":"Point","coordinates":[-0.5181943,51.5806166]}},{"type":"Feature","properties":{"name":"Denham"},"geometry":{"type":"Point","coordinates":[-0.4975242,51.5787242]}},{"type":"Feature","properties":{"name":"Ruislip Gardens"},"geometry":{"type":"Point","coordinates":[-0.4104614,51.5606573]}},{"type":"Feature","properties":{"name":"Tipton"},"geometry":{"type":"Point","coordinates":[-2.0657314,52.530527]}},{"type":"Feature","properties":{"name":"Wendover"},"geometry":{"type":"Point","coordinates":[-0.7476905,51.7618168]}},{"type":"Feature","properties":{"name":"Great Missenden"},"geometry":{"type":"Point","coordinates":[-0.7092458,51.7033896]}},{"type":"Feature","properties":{"name":"Smethwick Rolfe Street"},"geometry":{"type":"Point","coordinates":[-1.9693703,52.4962726]}},{"type":"Feature","properties":{"name":"South Kenton"},"geometry":{"type":"Point","coordinates":[-0.3085107,51.5703076]}},{"type":"Feature","properties":{"name":"North Wembley"},"geometry":{"type":"Point","coordinates":[-0.3038698,51.5624017]}},{"type":"Feature","properties":{"name":"Lichfield City"},"geometry":{"type":"Point","coordinates":[-1.8251247,52.6802201]}},{"type":"Feature","properties":{"name":"Rugeley Town"},"geometry":{"type":"Point","coordinates":[-1.9369103,52.7546597]}},{"type":"Feature","properties":{"name":"Minffordd"},"geometry":{"type":"Point","coordinates":[-4.0849025,52.9260294]}},{"type":"Feature","properties":{"name":"Talsarnau"},"geometry":{"type":"Point","coordinates":[-4.068266,52.9044005]}},{"type":"Feature","properties":{"name":"Pensarn"},"geometry":{"type":"Point","coordinates":[-4.1112718,52.8304561]}},{"type":"Feature","properties":{"name":"Dyffryn Ardudwy"},"geometry":{"type":"Point","coordinates":[-4.1047297,52.7884337]}},{"type":"Feature","properties":{"name":"Morfa Mawddach"},"geometry":{"type":"Point","coordinates":[-4.0315882,52.707719]}},{"type":"Feature","properties":{"name":"Fairbourne"},"geometry":{"type":"Point","coordinates":[-4.0490344,52.6959804]}},{"type":"Feature","properties":{"name":"Llwyngwril"},"geometry":{"type":"Point","coordinates":[-4.0878014,52.6667724]}},{"type":"Feature","properties":{"name":"Aberdyfi"},"geometry":{"type":"Point","coordinates":[-4.0563163,52.5443486]}},{"type":"Feature","properties":{"name":"Penhelyg"},"geometry":{"type":"Point","coordinates":[-4.0352031,52.545692]}},{"type":"Feature","properties":{"name":"Alsager"},"geometry":{"type":"Point","coordinates":[-2.2988432,53.0930252]}},{"type":"Feature","properties":{"name":"Barnt Green"},"geometry":{"type":"Point","coordinates":[-1.9924997,52.3609702]}},{"type":"Feature","properties":{"name":"Droitwich Spa"},"geometry":{"type":"Point","coordinates":[-2.1583391,52.2683805]}},{"type":"Feature","properties":{"name":"Penkridge"},"geometry":{"type":"Point","coordinates":[-2.119421,52.7237035]}},{"type":"Feature","properties":{"name":"Bescot Stadium"},"geometry":{"type":"Point","coordinates":[-1.9910802,52.5630317]}},{"type":"Feature","properties":{"name":"Tame Bridge Parkway"},"geometry":{"type":"Point","coordinates":[-1.976025,52.5522851]}},{"type":"Feature","properties":{"name":"Perry Barr"},"geometry":{"type":"Point","coordinates":[-1.9023511,52.516406]}},{"type":"Feature","properties":{"name":"Arlesey"},"geometry":{"type":"Point","coordinates":[-0.2664291,52.0258162]}},{"type":"Feature","properties":{"name":"Doleham"},"geometry":{"type":"Point","coordinates":[0.6100124,50.9186255]}},{"type":"Feature","properties":{"name":"Hastings"},"geometry":{"type":"Point","coordinates":[0.5768255,50.8583028]}},{"type":"Feature","properties":{"name":"Weston Milton"},"geometry":{"type":"Point","coordinates":[-2.9428878,51.348402]}},{"type":"Feature","properties":{"name":"Yatton"},"geometry":{"type":"Point","coordinates":[-2.8277046,51.3908826]}},{"type":"Feature","properties":{"name":"Weston-super-Mare"},"geometry":{"type":"Point","coordinates":[-2.9718305,51.344496]}},{"type":"Feature","properties":{"name":"Polsloe Bridge"},"geometry":{"type":"Point","coordinates":[-3.5021627,50.7313015]}},{"type":"Feature","properties":{"name":"Topsham"},"geometry":{"type":"Point","coordinates":[-3.4637875,50.685645]}},{"type":"Feature","properties":{"name":"Exton"},"geometry":{"type":"Point","coordinates":[-3.4440694,50.6680325]}},{"type":"Feature","properties":{"name":"Lympstone Commando"},"geometry":{"type":"Point","coordinates":[-3.4409796,50.6625937]}},{"type":"Feature","properties":{"name":"Exmouth"},"geometry":{"type":"Point","coordinates":[-3.4149723,50.6215885]}},{"type":"Feature","properties":{"name":"Malvern Link"},"geometry":{"type":"Point","coordinates":[-2.3195676,52.1258094]}},{"type":"Feature","properties":{"name":"Shawford"},"geometry":{"type":"Point","coordinates":[-1.3277225,51.0221625]}},{"type":"Feature","properties":{"name":"Blakedown"},"geometry":{"type":"Point","coordinates":[-2.1763936,52.4067914]}},{"type":"Feature","properties":{"name":"Hagley"},"geometry":{"type":"Point","coordinates":[-2.1465358,52.4224267]}},{"type":"Feature","properties":{"name":"Stourbridge Junction"},"geometry":{"type":"Point","coordinates":[-2.1340314,52.4476157]}},{"type":"Feature","properties":{"name":"Stourbridge Town"},"geometry":{"type":"Point","coordinates":[-2.1418921,52.4555918]}},{"type":"Feature","properties":{"name":"Lye"},"geometry":{"type":"Point","coordinates":[-2.1160497,52.4599417]}},{"type":"Feature","properties":{"name":"Cradley Heath"},"geometry":{"type":"Point","coordinates":[-2.0907047,52.4694427]}},{"type":"Feature","properties":{"name":"Rowley Regis"},"geometry":{"type":"Point","coordinates":[-2.0308221,52.4774198]}},{"type":"Feature","properties":{"name":"Langley Green"},"geometry":{"type":"Point","coordinates":[-2.0054314,52.4934857]}},{"type":"Feature","properties":{"name":"Meldreth"},"geometry":{"type":"Point","coordinates":[0.0091415,52.0908316]}},{"type":"Feature","properties":{"name":"Bewdley"},"geometry":{"type":"Point","coordinates":[-2.3066603,52.3757574]}},{"type":"Feature","properties":{"name":"Northwood Halt"},"geometry":{"type":"Point","coordinates":[-2.3275672,52.3947134]}},{"type":"Feature","properties":{"name":"Arley"},"geometry":{"type":"Point","coordinates":[-2.3489579,52.4172341]}},{"type":"Feature","properties":{"name":"Hampton Loade"},"geometry":{"type":"Point","coordinates":[-2.3771557,52.4738852]}},{"type":"Feature","properties":{"name":"Highley"},"geometry":{"type":"Point","coordinates":[-2.3705819,52.444908]}},{"type":"Feature","properties":{"name":"Leagrave"},"geometry":{"type":"Point","coordinates":[-0.4585987,51.9054737]}},{"type":"Feature","properties":{"name":"Inverness"},"geometry":{"type":"Point","coordinates":[-4.2227142,57.4802331]}},{"type":"Feature","properties":{"name":"Beauly"},"geometry":{"type":"Point","coordinates":[-4.4699354,57.478302]}},{"type":"Feature","properties":{"name":"Swanwick"},"geometry":{"type":"Point","coordinates":[-1.2657803,50.8757233]}},{"type":"Feature","properties":{"name":"Kemble"},"geometry":{"type":"Point","coordinates":[-2.0230749,51.6767954]}},{"type":"Feature","properties":{"name":"Sudbury Hill Harrow"},"geometry":{"type":"Point","coordinates":[-0.3361821,51.5585518]}},{"type":"Feature","properties":{"name":"Stroud"},"geometry":{"type":"Point","coordinates":[-2.2192353,51.7445273]}},{"type":"Feature","properties":{"name":"Stonehouse"},"geometry":{"type":"Point","coordinates":[-2.2794209,51.7459341]}},{"type":"Feature","properties":{"name":"Totton"},"geometry":{"type":"Point","coordinates":[-1.4830687,50.9176659]}},{"type":"Feature","properties":{"name":"Church Fenton"},"geometry":{"type":"Point","coordinates":[-1.2272134,53.8270101]}},{"type":"Feature","properties":{"name":"Cathays"},"geometry":{"type":"Point","coordinates":[-3.1789269,51.4888964]}},{"type":"Feature","properties":{"name":"Llandaf"},"geometry":{"type":"Point","coordinates":[-3.2292469,51.5084984]}},{"type":"Feature","properties":{"name":"Tooting Bec"},"geometry":{"type":"Point","coordinates":[-0.1597188,51.4356228]}},{"type":"Feature","properties":{"name":"Burley Park"},"geometry":{"type":"Point","coordinates":[-1.577847,53.8120604]}},{"type":"Feature","properties":{"name":"Marske"},"geometry":{"type":"Point","coordinates":[-1.0195165,54.5873806]}},{"type":"Feature","properties":{"name":"Dyce"},"geometry":{"type":"Point","coordinates":[-2.1926918,57.2057069]}},{"type":"Feature","properties":{"name":"Clapham North"},"geometry":{"type":"Point","coordinates":[-0.1296388,51.4653034]}},{"type":"Feature","properties":{"name":"Oval"},"geometry":{"type":"Point","coordinates":[-0.1123953,51.4818339]}},{"type":"Feature","properties":{"name":"Kennington"},"geometry":{"type":"Point","coordinates":[-0.1058829,51.4882861]}},{"type":"Feature","properties":{"name":"Leuchars"},"geometry":{"type":"Point","coordinates":[-2.8938545,56.374796]}},{"type":"Feature","properties":{"name":"Cupar"},"geometry":{"type":"Point","coordinates":[-3.0089641,56.3172023]}},{"type":"Feature","properties":{"name":"Springfield"},"geometry":{"type":"Point","coordinates":[-3.0528873,56.2949363]}},{"type":"Feature","properties":{"name":"Ladybank"},"geometry":{"type":"Point","coordinates":[-3.1215949,56.2742464]}},{"type":"Feature","properties":{"name":"Inverurie"},"geometry":{"type":"Point","coordinates":[-2.3734847,57.2864073]}},{"type":"Feature","properties":{"name":"Insch"},"geometry":{"type":"Point","coordinates":[-2.6169182,57.3373738]}},{"type":"Feature","properties":{"name":"Huntly"},"geometry":{"type":"Point","coordinates":[-2.7757306,57.4445079]}},{"type":"Feature","properties":{"name":"Keith"},"geometry":{"type":"Point","coordinates":[-2.9540057,57.5513812]}},{"type":"Feature","properties":{"name":"East Didsbury"},"geometry":{"type":"Point","coordinates":[-2.2219984,53.4093155]}},{"type":"Feature","properties":{"name":"Edinburgh Park"},"geometry":{"type":"Point","coordinates":[-3.3075679,55.9275816]}},{"type":"Feature","properties":{"name":"Newcraighall"},"geometry":{"type":"Point","coordinates":[-3.0906705,55.9329747]}},{"type":"Feature","properties":{"name":"Deganwy"},"geometry":{"type":"Point","coordinates":[-3.8332541,53.2945745]}},{"type":"Feature","properties":{"name":"Llandudno"},"geometry":{"type":"Point","coordinates":[-3.8278226,53.3202833]}},{"type":"Feature","properties":{"name":"Dalston Junction"},"geometry":{"type":"Point","coordinates":[-0.074968,51.5452841]}},{"type":"Feature","properties":{"name":"Hinckley"},"geometry":{"type":"Point","coordinates":[-1.3711055,52.5351729]}},{"type":"Feature","properties":{"name":"Radley"},"geometry":{"type":"Point","coordinates":[-1.2402569,51.6856231]}},{"type":"Feature","properties":{"name":"Lockwood"},"geometry":{"type":"Point","coordinates":[-1.8007875,53.6348046]}},{"type":"Feature","properties":{"name":"Berry Brow"},"geometry":{"type":"Point","coordinates":[-1.7935694,53.6210566]}},{"type":"Feature","properties":{"name":"Honley"},"geometry":{"type":"Point","coordinates":[-1.7808523,53.6082408]}},{"type":"Feature","properties":{"name":"Brockholes"},"geometry":{"type":"Point","coordinates":[-1.7698266,53.5970261]}},{"type":"Feature","properties":{"name":"Denby Dale"},"geometry":{"type":"Point","coordinates":[-1.663204,53.5728721]}},{"type":"Feature","properties":{"name":"Penistone"},"geometry":{"type":"Point","coordinates":[-1.6226761,53.525632]}},{"type":"Feature","properties":{"name":"Silkstone Common"},"geometry":{"type":"Point","coordinates":[-1.5630289,53.5353509]}},{"type":"Feature","properties":{"name":"Crowle"},"geometry":{"type":"Point","coordinates":[-0.8173514,53.5898215]}},{"type":"Feature","properties":{"name":"Althorpe"},"geometry":{"type":"Point","coordinates":[-0.732955,53.5855457]}},{"type":"Feature","properties":{"name":"Barnetby"},"geometry":{"type":"Point","coordinates":[-0.4097613,53.5750127]}},{"type":"Feature","properties":{"name":"Brigg"},"geometry":{"type":"Point","coordinates":[-0.4857584,53.5490517]}},{"type":"Feature","properties":{"name":"Kirton Lindsey"},"geometry":{"type":"Point","coordinates":[-0.5935507,53.4852618]}},{"type":"Feature","properties":{"name":"Haworth"},"geometry":{"type":"Point","coordinates":[-1.9488416,53.8313183]}},{"type":"Feature","properties":{"name":"Oakworth"},"geometry":{"type":"Point","coordinates":[-1.9419575,53.8413266]}},{"type":"Feature","properties":{"name":"Damems"},"geometry":{"type":"Point","coordinates":[-1.9244358,53.8459194]}},{"type":"Feature","properties":{"name":"Ingrow (West)"},"geometry":{"type":"Point","coordinates":[-1.9151443,53.8536646]}},{"type":"Feature","properties":{"name":"Baildon"},"geometry":{"type":"Point","coordinates":[-1.7537033,53.8502025]}},{"type":"Feature","properties":{"name":"Montpelier"},"geometry":{"type":"Point","coordinates":[-2.5886798,51.4683479]}},{"type":"Feature","properties":{"name":"Long Preston"},"geometry":{"type":"Point","coordinates":[-2.2553009,54.016726]}},{"type":"Feature","properties":{"name":"Langho"},"geometry":{"type":"Point","coordinates":[-2.4488239,53.8048112]}},{"type":"Feature","properties":{"name":"Darwen"},"geometry":{"type":"Point","coordinates":[-2.4642693,53.6979355]}},{"type":"Feature","properties":{"name":"Entwistle"},"geometry":{"type":"Point","coordinates":[-2.414053,53.6559805]}},{"type":"Feature","properties":{"name":"Kearsley"},"geometry":{"type":"Point","coordinates":[-2.3754896,53.5445245]}},{"type":"Feature","properties":{"name":"Clifton"},"geometry":{"type":"Point","coordinates":[-2.3141164,53.5223155]}},{"type":"Feature","properties":{"name":"North Dulwich"},"geometry":{"type":"Point","coordinates":[-0.0883292,51.4541783]}},{"type":"Feature","properties":{"name":"Stapleton Road"},"geometry":{"type":"Point","coordinates":[-2.5663184,51.467446]}},{"type":"Feature","properties":{"name":"Lawrence Hill"},"geometry":{"type":"Point","coordinates":[-2.56417,51.45858]}},{"type":"Feature","properties":{"name":"Port Glasgow"},"geometry":{"type":"Point","coordinates":[-4.6904781,55.9335317]}},{"type":"Feature","properties":{"name":"Branchton"},"geometry":{"type":"Point","coordinates":[-4.8036446,55.9405482]}},{"type":"Feature","properties":{"name":"Paisley Gilmour Street"},"geometry":{"type":"Point","coordinates":[-4.4242818,55.8473867]}},{"type":"Feature","properties":{"name":"Cardonald"},"geometry":{"type":"Point","coordinates":[-4.3403698,55.8527558]}},{"type":"Feature","properties":{"name":"Bishopton"},"geometry":{"type":"Point","coordinates":[-4.5008001,55.9023584]}},{"type":"Feature","properties":{"name":"Blackrod"},"geometry":{"type":"Point","coordinates":[-2.5698672,53.5912146]}},{"type":"Feature","properties":{"name":"Moreton"},"geometry":{"type":"Point","coordinates":[-2.3141397,50.701184]}},{"type":"Feature","properties":{"name":"Wool"},"geometry":{"type":"Point","coordinates":[-2.2213123,50.681661]}},{"type":"Feature","properties":{"name":"Wavertree Technology Park"},"geometry":{"type":"Point","coordinates":[-2.9228151,53.4052171]}},{"type":"Feature","properties":{"name":"Lea Green"},"geometry":{"type":"Point","coordinates":[-2.7251202,53.4267142]}},{"type":"Feature","properties":{"name":"Thatto Heath"},"geometry":{"type":"Point","coordinates":[-2.7594696,53.4366896]}},{"type":"Feature","properties":{"name":"Garswood"},"geometry":{"type":"Point","coordinates":[-2.6719929,53.4880481]}},{"type":"Feature","properties":{"name":"Bryn"},"geometry":{"type":"Point","coordinates":[-2.6476163,53.4997249]}},{"type":"Feature","properties":{"name":"Wick"},"geometry":{"type":"Point","coordinates":[-3.098527,58.4417398]}},{"type":"Feature","properties":{"name":"Georgemas Junction"},"geometry":{"type":"Point","coordinates":[-3.4513992,58.5135504]}},{"type":"Feature","properties":{"name":"Thurso"},"geometry":{"type":"Point","coordinates":[-3.5278692,58.5897358]}},{"type":"Feature","properties":{"name":"Altnabreac"},"geometry":{"type":"Point","coordinates":[-3.7061485,58.3881251]}},{"type":"Feature","properties":{"name":"Gatley"},"geometry":{"type":"Point","coordinates":[-2.2306618,53.3932392]}},{"type":"Feature","properties":{"name":"Walthamstow Queen's Road"},"geometry":{"type":"Point","coordinates":[-0.0237594,51.5815237]}},{"type":"Feature","properties":{"name":"Aldrington"},"geometry":{"type":"Point","coordinates":[-0.1817423,50.8363558]}},{"type":"Feature","properties":{"name":"Warrington Bank Quay"},"geometry":{"type":"Point","coordinates":[-2.6031782,53.3859367]}},{"type":"Feature","properties":{"name":"Eccles"},"geometry":{"type":"Point","coordinates":[-2.3340515,53.4855266]}},{"type":"Feature","properties":{"name":"Criccieth"},"geometry":{"type":"Point","coordinates":[-4.2372963,52.9183781]}},{"type":"Feature","properties":{"name":"Stechford"},"geometry":{"type":"Point","coordinates":[-1.8110345,52.4851563]}},{"type":"Feature","properties":{"name":"Lea Hall"},"geometry":{"type":"Point","coordinates":[-1.786031,52.4805217]}},{"type":"Feature","properties":{"name":"St. James's Park"},"geometry":{"type":"Point","coordinates":[-0.1345942,51.4992816]}},{"type":"Feature","properties":{"name":"Hampton-in-Arden"},"geometry":{"type":"Point","coordinates":[-1.6997231,52.4286358]}},{"type":"Feature","properties":{"name":"Iver"},"geometry":{"type":"Point","coordinates":[-0.5068108,51.5086086]}},{"type":"Feature","properties":{"name":"Westminster"},"geometry":{"type":"Point","coordinates":[-0.1249302,51.5013562]}},{"type":"Feature","properties":{"name":"Derby Road"},"geometry":{"type":"Point","coordinates":[1.1826954,52.0505184]}},{"type":"Feature","properties":{"name":"Felixstowe"},"geometry":{"type":"Point","coordinates":[1.3498136,51.9670171]}},{"type":"Feature","properties":{"name":"Westerfield"},"geometry":{"type":"Point","coordinates":[1.1662429,52.0810968]}},{"type":"Feature","properties":{"name":"Thames Ditton"},"geometry":{"type":"Point","coordinates":[-0.339152,51.3890554]}},{"type":"Feature","properties":{"name":"Oldland Common"},"geometry":{"type":"Point","coordinates":[-2.4668807,51.4439411]}},{"type":"Feature","properties":{"name":"Teignmouth"},"geometry":{"type":"Point","coordinates":[-3.4946798,50.5481567]}},{"type":"Feature","properties":{"name":"Coulsdon Town"},"geometry":{"type":"Point","coordinates":[-0.134245,51.3220643]}},{"type":"Feature","properties":{"name":"Woodmansterne"},"geometry":{"type":"Point","coordinates":[-0.1538819,51.3190513]}},{"type":"Feature","properties":{"name":"Kingswood"},"geometry":{"type":"Point","coordinates":[-0.2110536,51.2947305]}},{"type":"Feature","properties":{"name":"Reedham"},"geometry":{"type":"Point","coordinates":[-0.1234206,51.3311286]}},{"type":"Feature","properties":{"name":"Brundall Gardens"},"geometry":{"type":"Point","coordinates":[1.4185238,52.6233987]}},{"type":"Feature","properties":{"name":"Keynsham"},"geometry":{"type":"Point","coordinates":[-2.4958797,51.418071]}},{"type":"Feature","properties":{"name":"Clifton Down"},"geometry":{"type":"Point","coordinates":[-2.6114362,51.4644315]}},{"type":"Feature","properties":{"name":"Bedford St Johns"},"geometry":{"type":"Point","coordinates":[-0.4676347,52.1293672]}},{"type":"Feature","properties":{"name":"Dalgety Bay"},"geometry":{"type":"Point","coordinates":[-3.367249,56.0422731]}},{"type":"Feature","properties":{"name":"Aberdour"},"geometry":{"type":"Point","coordinates":[-3.3009757,56.0547554]}},{"type":"Feature","properties":{"name":"Burntisland"},"geometry":{"type":"Point","coordinates":[-3.2338286,56.0573493]}},{"type":"Feature","properties":{"name":"Kinghorn"},"geometry":{"type":"Point","coordinates":[-3.1744897,56.069094]}},{"type":"Feature","properties":{"name":"Glenrothes with Thornton"},"geometry":{"type":"Point","coordinates":[-3.1429347,56.162291]}},{"type":"Feature","properties":{"name":"Cardenden"},"geometry":{"type":"Point","coordinates":[-3.2609812,56.141062]}},{"type":"Feature","properties":{"name":"Lochgelly"},"geometry":{"type":"Point","coordinates":[-3.3134751,56.1348998]}},{"type":"Feature","properties":{"name":"Cowdenbeath"},"geometry":{"type":"Point","coordinates":[-3.3432863,56.1116531]}},{"type":"Feature","properties":{"name":"Dunfermline Queen Margaret"},"geometry":{"type":"Point","coordinates":[-3.4217706,56.0801657]}},{"type":"Feature","properties":{"name":"Dunfermline City"},"geometry":{"type":"Point","coordinates":[-3.4523618,56.0681116]}},{"type":"Feature","properties":{"name":"Rosyth"},"geometry":{"type":"Point","coordinates":[-3.4263289,56.0453763]}},{"type":"Feature","properties":{"name":"Exeter St Thomas"},"geometry":{"type":"Point","coordinates":[-3.5388213,50.717201]}},{"type":"Feature","properties":{"name":"Ropley"},"geometry":{"type":"Point","coordinates":[-1.1025376,51.0874857]}},{"type":"Feature","properties":{"name":"Muir of Ord"},"geometry":{"type":"Point","coordinates":[-4.4602186,57.5176683]}},{"type":"Feature","properties":{"name":"Dingwall"},"geometry":{"type":"Point","coordinates":[-4.422199,57.5941965]}},{"type":"Feature","properties":{"name":"Alness"},"geometry":{"type":"Point","coordinates":[-4.2499451,57.6944251]}},{"type":"Feature","properties":{"name":"Invergordon"},"geometry":{"type":"Point","coordinates":[-4.1742602,57.6890832]}},{"type":"Feature","properties":{"name":"Fearn"},"geometry":{"type":"Point","coordinates":[-3.9939337,57.7780916]}},{"type":"Feature","properties":{"name":"Tain"},"geometry":{"type":"Point","coordinates":[-4.0521292,57.8144887]}},{"type":"Feature","properties":{"name":"Ardgay"},"geometry":{"type":"Point","coordinates":[-4.362216,57.8815701]}},{"type":"Feature","properties":{"name":"Lairg"},"geometry":{"type":"Point","coordinates":[-4.3998683,58.0018896]}},{"type":"Feature","properties":{"name":"Golspie"},"geometry":{"type":"Point","coordinates":[-3.98726,57.9712775]}},{"type":"Feature","properties":{"name":"Dunrobin Castle"},"geometry":{"type":"Point","coordinates":[-3.9473688,57.9857817]}},{"type":"Feature","properties":{"name":"Brora"},"geometry":{"type":"Point","coordinates":[-3.8523419,58.0131432]}},{"type":"Feature","properties":{"name":"Helmsdale"},"geometry":{"type":"Point","coordinates":[-3.6591456,58.1177286]}},{"type":"Feature","properties":{"name":"Garve"},"geometry":{"type":"Point","coordinates":[-4.6883753,57.6131055]}},{"type":"Feature","properties":{"name":"Achnasheen"},"geometry":{"type":"Point","coordinates":[-5.0721994,57.5793199]}},{"type":"Feature","properties":{"name":"Stromeferry"},"geometry":{"type":"Point","coordinates":[-5.5507696,57.3522003]}},{"type":"Feature","properties":{"name":"Plockton"},"geometry":{"type":"Point","coordinates":[-5.6658916,57.3335912]}},{"type":"Feature","properties":{"name":"Kyle of Lochalsh"},"geometry":{"type":"Point","coordinates":[-5.7138678,57.2802066]}},{"type":"Feature","properties":{"name":"Boat of Garten"},"geometry":{"type":"Point","coordinates":[-3.7524586,57.2481303]}},{"type":"Feature","properties":{"name":"Broomhill"},"geometry":{"type":"Point","coordinates":[-3.6670708,57.2833838]}},{"type":"Feature","properties":{"name":"Carrbridge"},"geometry":{"type":"Point","coordinates":[-3.8282176,57.279486]}},{"type":"Feature","properties":{"name":"Dufftown"},"geometry":{"type":"Point","coordinates":[-3.1310294,57.4580974]}},{"type":"Feature","properties":{"name":"Towiemore"},"geometry":{"type":"Point","coordinates":[-3.0114699,57.49636]}},{"type":"Feature","properties":{"name":"Keith Town"},"geometry":{"type":"Point","coordinates":[-2.9557534,57.5435539]}},{"type":"Feature","properties":{"name":"Oldfield Park"},"geometry":{"type":"Point","coordinates":[-2.3801536,51.379209]}},{"type":"Feature","properties":{"name":"Elgin"},"geometry":{"type":"Point","coordinates":[-3.3111359,57.6427907]}},{"type":"Feature","properties":{"name":"Polmont"},"geometry":{"type":"Point","coordinates":[-3.7144735,55.9844795]}},{"type":"Feature","properties":{"name":"Linlithgow"},"geometry":{"type":"Point","coordinates":[-3.5957872,55.9763936]}},{"type":"Feature","properties":{"name":"Brundall"},"geometry":{"type":"Point","coordinates":[1.4389568,52.6195374]}},{"type":"Feature","properties":{"name":"Fort William"},"geometry":{"type":"Point","coordinates":[-5.1053126,56.8205581]}},{"type":"Feature","properties":{"name":"Banavie"},"geometry":{"type":"Point","coordinates":[-5.0958983,56.8438445]}},{"type":"Feature","properties":{"name":"Lochailort"},"geometry":{"type":"Point","coordinates":[-5.6632962,56.8814375]}},{"type":"Feature","properties":{"name":"Locheilside"},"geometry":{"type":"Point","coordinates":[-5.2903522,56.8559844]}},{"type":"Feature","properties":{"name":"Loch Eil Outward Bound"},"geometry":{"type":"Point","coordinates":[-5.1929207,56.8554042]}},{"type":"Feature","properties":{"name":"Colchester Town"},"geometry":{"type":"Point","coordinates":[0.9054279,51.8865086]}},{"type":"Feature","properties":{"name":"Milngavie"},"geometry":{"type":"Point","coordinates":[-4.3143365,55.9413182]}},{"type":"Feature","properties":{"name":"Hillfoot"},"geometry":{"type":"Point","coordinates":[-4.319724,55.9203329]}},{"type":"Feature","properties":{"name":"Bearsden"},"geometry":{"type":"Point","coordinates":[-4.3326044,55.9169433]}},{"type":"Feature","properties":{"name":"Cardross"},"geometry":{"type":"Point","coordinates":[-4.652967,55.9602378]}},{"type":"Feature","properties":{"name":"Craigendoran"},"geometry":{"type":"Point","coordinates":[-4.7119204,55.9948435]}},{"type":"Feature","properties":{"name":"Brixton"},"geometry":{"type":"Point","coordinates":[-0.114705,51.4626097]}},{"type":"Feature","properties":{"name":"Morley"},"geometry":{"type":"Point","coordinates":[-1.589163,53.7505897]}},{"type":"Feature","properties":{"name":"Hope (Flintshire)"},"geometry":{"type":"Point","coordinates":[-3.0372474,53.1168595]}},{"type":"Feature","properties":{"name":"Caergwrle"},"geometry":{"type":"Point","coordinates":[-3.0332101,53.1080757]}},{"type":"Feature","properties":{"name":"Cefn-y-Bedd"},"geometry":{"type":"Point","coordinates":[-3.0308499,53.0988378]}},{"type":"Feature","properties":{"name":"Gwersyllt"},"geometry":{"type":"Point","coordinates":[-3.0176175,53.0727884]}},{"type":"Feature","properties":{"name":"Gretna Green"},"geometry":{"type":"Point","coordinates":[-3.066695,55.0007365]}},{"type":"Feature","properties":{"name":"Annan"},"geometry":{"type":"Point","coordinates":[-3.2628103,54.9835121]}},{"type":"Feature","properties":{"name":"Dumfries"},"geometry":{"type":"Point","coordinates":[-3.6044458,55.0727039]}},{"type":"Feature","properties":{"name":"Kelvinhall"},"geometry":{"type":"Point","coordinates":[-4.2997826,55.8710725]}},{"type":"Feature","properties":{"name":"Sanquhar"},"geometry":{"type":"Point","coordinates":[-3.9246994,55.3709645]}},{"type":"Feature","properties":{"name":"Kirkconnel"},"geometry":{"type":"Point","coordinates":[-3.9988105,55.3875092]}},{"type":"Feature","properties":{"name":"New Cumnock"},"geometry":{"type":"Point","coordinates":[-4.1833546,55.4022358]}},{"type":"Feature","properties":{"name":"Auchinleck"},"geometry":{"type":"Point","coordinates":[-4.2959612,55.4698739]}},{"type":"Feature","properties":{"name":"Troon"},"geometry":{"type":"Point","coordinates":[-4.6555229,55.5427424]}},{"type":"Feature","properties":{"name":"Kilmarnock"},"geometry":{"type":"Point","coordinates":[-4.4994085,55.6125595]}},{"type":"Feature","properties":{"name":"Yarwell Junction (NVR)"},"geometry":{"type":"Point","coordinates":[-0.4094509,52.5610781]}},{"type":"Feature","properties":{"name":"Cressington"},"geometry":{"type":"Point","coordinates":[-2.912095,53.3586932]}},{"type":"Feature","properties":{"name":"Freshford"},"geometry":{"type":"Point","coordinates":[-2.3005891,51.3417702]}},{"type":"Feature","properties":{"name":"Rothley"},"geometry":{"type":"Point","coordinates":[-1.1598113,52.7042808]}},{"type":"Feature","properties":{"name":"Bowling"},"geometry":{"type":"Point","coordinates":[-4.4929182,55.9310545]}},{"type":"Feature","properties":{"name":"Helensburgh Central"},"geometry":{"type":"Point","coordinates":[-4.7315696,56.0038456]}},{"type":"Feature","properties":{"name":"Kelvinbridge"},"geometry":{"type":"Point","coordinates":[-4.2797284,55.8742774]}},{"type":"Feature","properties":{"name":"Hillhead"},"geometry":{"type":"Point","coordinates":[-4.2933927,55.8752484]}},{"type":"Feature","properties":{"name":"Forsinard"},"geometry":{"type":"Point","coordinates":[-3.8969589,58.3568564]}},{"type":"Feature","properties":{"name":"Lochwinnoch"},"geometry":{"type":"Point","coordinates":[-4.6157219,55.7871745]}},{"type":"Feature","properties":{"name":"Irwell Vale"},"geometry":{"type":"Point","coordinates":[-2.3157744,53.6768699]}},{"type":"Feature","properties":{"name":"Rawtenstall"},"geometry":{"type":"Point","coordinates":[-2.2918033,53.698586]}},{"type":"Feature","properties":{"name":"Summerseat"},"geometry":{"type":"Point","coordinates":[-2.3134126,53.6279534]}},{"type":"Feature","properties":{"name":"Burrs Country Park Halt"},"geometry":{"type":"Point","coordinates":[-2.3032556,53.6113055]}},{"type":"Feature","properties":{"name":"Bury, Bolton Street"},"geometry":{"type":"Point","coordinates":[-2.3003018,53.5929094]}},{"type":"Feature","properties":{"name":"St. Helier"},"geometry":{"type":"Point","coordinates":[-0.1988601,51.389451]}},{"type":"Feature","properties":{"name":"Sutton Common"},"geometry":{"type":"Point","coordinates":[-0.1961049,51.3754313]}},{"type":"Feature","properties":{"name":"Spean Bridge"},"geometry":{"type":"Point","coordinates":[-4.9216232,56.8898718]}},{"type":"Feature","properties":{"name":"Ramsbottom"},"geometry":{"type":"Point","coordinates":[-2.3146606,53.6473535]}},{"type":"Feature","properties":{"name":"Neston"},"geometry":{"type":"Point","coordinates":[-3.0629961,53.2917467]}},{"type":"Feature","properties":{"name":"Wylde Green"},"geometry":{"type":"Point","coordinates":[-1.8314515,52.5456367]}},{"type":"Feature","properties":{"name":"Aigburth"},"geometry":{"type":"Point","coordinates":[-2.9266096,53.3645118]}},{"type":"Feature","properties":{"name":"Bedminster"},"geometry":{"type":"Point","coordinates":[-2.5936286,51.4406058]}},{"type":"Feature","properties":{"name":"Parson Street"},"geometry":{"type":"Point","coordinates":[-2.6085368,51.432994]}},{"type":"Feature","properties":{"name":"Penmaenmawr"},"geometry":{"type":"Point","coordinates":[-3.9235064,53.2705474]}},{"type":"Feature","properties":{"name":"Llanfairfechan"},"geometry":{"type":"Point","coordinates":[-3.983123,53.2569753]}},{"type":"Feature","properties":{"name":"Llanfairpwll"},"geometry":{"type":"Point","coordinates":[-4.2093569,53.2208651]}},{"type":"Feature","properties":{"name":"Bodorgan"},"geometry":{"type":"Point","coordinates":[-4.4162913,53.2041893]}},{"type":"Feature","properties":{"name":"Ty Croes"},"geometry":{"type":"Point","coordinates":[-4.4739623,53.2225426]}},{"type":"Feature","properties":{"name":"Rhosneigr"},"geometry":{"type":"Point","coordinates":[-4.5058449,53.2346794]}},{"type":"Feature","properties":{"name":"Valley"},"geometry":{"type":"Point","coordinates":[-4.5634307,53.2815404]}},{"type":"Feature","properties":{"name":"Heckington"},"geometry":{"type":"Point","coordinates":[-0.2938084,52.9772075]}},{"type":"Feature","properties":{"name":"Sleaford"},"geometry":{"type":"Point","coordinates":[-0.4101594,52.9955161]}},{"type":"Feature","properties":{"name":"Rauceby"},"geometry":{"type":"Point","coordinates":[-0.4559695,52.9852782]}},{"type":"Feature","properties":{"name":"Elton and Orston"},"geometry":{"type":"Point","coordinates":[-0.8554051,52.9521534]}},{"type":"Feature","properties":{"name":"Cartsdyke"},"geometry":{"type":"Point","coordinates":[-4.7323622,55.9422124]}},{"type":"Feature","properties":{"name":"Bogston"},"geometry":{"type":"Point","coordinates":[-4.7122765,55.9371847]}},{"type":"Feature","properties":{"name":"Woodhall"},"geometry":{"type":"Point","coordinates":[-4.6566353,55.9314376]}},{"type":"Feature","properties":{"name":"Langbank"},"geometry":{"type":"Point","coordinates":[-4.5861277,55.9245747]}},{"type":"Feature","properties":{"name":"Paisley St James"},"geometry":{"type":"Point","coordinates":[-4.4424606,55.85212]}},{"type":"Feature","properties":{"name":"Hillington West"},"geometry":{"type":"Point","coordinates":[-4.3710945,55.8558618]}},{"type":"Feature","properties":{"name":"Hillington East"},"geometry":{"type":"Point","coordinates":[-4.3549043,55.8542302]}},{"type":"Feature","properties":{"name":"Bellgrove"},"geometry":{"type":"Point","coordinates":[-4.2243365,55.8567027]}},{"type":"Feature","properties":{"name":"Duke Street"},"geometry":{"type":"Point","coordinates":[-4.2125984,55.8586614]}},{"type":"Feature","properties":{"name":"Shenton"},"geometry":{"type":"Point","coordinates":[-1.415295,52.5996554]}},{"type":"Feature","properties":{"name":"Shackerstone"},"geometry":{"type":"Point","coordinates":[-1.4412337,52.6556653]}},{"type":"Feature","properties":{"name":"South Gyle"},"geometry":{"type":"Point","coordinates":[-3.2993662,55.936508]}},{"type":"Feature","properties":{"name":"Faversham"},"geometry":{"type":"Point","coordinates":[0.8906635,51.3116525]}},{"type":"Feature","properties":{"name":"Aspley Guise"},"geometry":{"type":"Point","coordinates":[-0.6326933,52.0212048]}},{"type":"Feature","properties":{"name":"Ridgmont"},"geometry":{"type":"Point","coordinates":[-0.5948488,52.026389]}},{"type":"Feature","properties":{"name":"Stewartby"},"geometry":{"type":"Point","coordinates":[-0.5207575,52.0690354]}},{"type":"Feature","properties":{"name":"Paisley Canal"},"geometry":{"type":"Point","coordinates":[-4.4227595,55.840182]}},{"type":"Feature","properties":{"name":"Severn Beach"},"geometry":{"type":"Point","coordinates":[-2.6645392,51.5596758]}},{"type":"Feature","properties":{"name":"Battersby"},"geometry":{"type":"Point","coordinates":[-1.0933566,54.4575551]}},{"type":"Feature","properties":{"name":"Burnham"},"geometry":{"type":"Point","coordinates":[-0.6470844,51.5233926]}},{"type":"Feature","properties":{"name":"Brunswick"},"geometry":{"type":"Point","coordinates":[-2.9760156,53.3832177]}},{"type":"Feature","properties":{"name":"Greenock Central"},"geometry":{"type":"Point","coordinates":[-4.7518756,55.9452099]}},{"type":"Feature","properties":{"name":"Whinhill"},"geometry":{"type":"Point","coordinates":[-4.7466858,55.9383768]}},{"type":"Feature","properties":{"name":"Embsay"},"geometry":{"type":"Point","coordinates":[-1.9911832,53.9753663]}},{"type":"Feature","properties":{"name":"Holywell Halt"},"geometry":{"type":"Point","coordinates":[-1.9604287,53.9759635]}},{"type":"Feature","properties":{"name":"Southbourne"},"geometry":{"type":"Point","coordinates":[-0.9071791,50.8481981]}},{"type":"Feature","properties":{"name":"Emsworth"},"geometry":{"type":"Point","coordinates":[-0.9385075,50.8516544]}},{"type":"Feature","properties":{"name":"Argyle Street"},"geometry":{"type":"Point","coordinates":[-4.2505836,55.8576248]}},{"type":"Feature","properties":{"name":"Anderston"},"geometry":{"type":"Point","coordinates":[-4.2702586,55.8597738]}},{"type":"Feature","properties":{"name":"Crossmyloof"},"geometry":{"type":"Point","coordinates":[-4.284793,55.8337247]}},{"type":"Feature","properties":{"name":"Shawlands"},"geometry":{"type":"Point","coordinates":[-4.2924269,55.8293953]}},{"type":"Feature","properties":{"name":"Thorntonhall"},"geometry":{"type":"Point","coordinates":[-4.2505925,55.7683101]}},{"type":"Feature","properties":{"name":"Giffnock"},"geometry":{"type":"Point","coordinates":[-4.2929605,55.8039361]}},{"type":"Feature","properties":{"name":"Thornliebank"},"geometry":{"type":"Point","coordinates":[-4.3117061,55.8110927]}},{"type":"Feature","properties":{"name":"Bolton Abbey"},"geometry":{"type":"Point","coordinates":[-1.9087365,53.9761584]}},{"type":"Feature","properties":{"name":"Hilsea"},"geometry":{"type":"Point","coordinates":[-1.058643,50.8283898]}},{"type":"Feature","properties":{"name":"Hawarden Bridge"},"geometry":{"type":"Point","coordinates":[-3.0322864,53.2181863]}},{"type":"Feature","properties":{"name":"Williamwood"},"geometry":{"type":"Point","coordinates":[-4.2899228,55.7940114]}},{"type":"Feature","properties":{"name":"Cathcart"},"geometry":{"type":"Point","coordinates":[-4.2603903,55.8177954]}},{"type":"Feature","properties":{"name":"Patterton"},"geometry":{"type":"Point","coordinates":[-4.3352786,55.7905841]}},{"type":"Feature","properties":{"name":"Neilston"},"geometry":{"type":"Point","coordinates":[-4.4272019,55.7828151]}},{"type":"Feature","properties":{"name":"Maxwell Park"},"geometry":{"type":"Point","coordinates":[-4.288521,55.8376638]}},{"type":"Feature","properties":{"name":"Pollokshields West"},"geometry":{"type":"Point","coordinates":[-4.2761545,55.8376405]}},{"type":"Feature","properties":{"name":"Llanwrtyd"},"geometry":{"type":"Point","coordinates":[-3.6322246,52.1046083]}},{"type":"Feature","properties":{"name":"Crookston"},"geometry":{"type":"Point","coordinates":[-4.3651014,55.8422333]}},{"type":"Feature","properties":{"name":"Ravensthorpe"},"geometry":{"type":"Point","coordinates":[-1.6557481,53.6755593]}},{"type":"Feature","properties":{"name":"Penrhyndeudraeth"},"geometry":{"type":"Point","coordinates":[-4.0645064,52.9287802]}},{"type":"Feature","properties":{"name":"Harlech"},"geometry":{"type":"Point","coordinates":[-4.1092654,52.861755]}},{"type":"Feature","properties":{"name":"Hawkhead"},"geometry":{"type":"Point","coordinates":[-4.3995361,55.8421016]}},{"type":"Feature","properties":{"name":"Mount Florida"},"geometry":{"type":"Point","coordinates":[-4.2611049,55.8268033]}},{"type":"Feature","properties":{"name":"Ivybridge"},"geometry":{"type":"Point","coordinates":[-3.9051778,50.3935074]}},{"type":"Feature","properties":{"name":"Torquay"},"geometry":{"type":"Point","coordinates":[-3.5430302,50.4610509]}},{"type":"Feature","properties":{"name":"Torre"},"geometry":{"type":"Point","coordinates":[-3.5462153,50.4727465]}},{"type":"Feature","properties":{"name":"Walsall"},"geometry":{"type":"Point","coordinates":[-1.9852679,52.5841365]}},{"type":"Feature","properties":{"name":"Croston"},"geometry":{"type":"Point","coordinates":[-2.7779892,53.6674573]}},{"type":"Feature","properties":{"name":"Burscough Junction"},"geometry":{"type":"Point","coordinates":[-2.8405323,53.5975512]}},{"type":"Feature","properties":{"name":"Salwick"},"geometry":{"type":"Point","coordinates":[-2.8182384,53.7817543]}},{"type":"Feature","properties":{"name":"Kirkham and Wesham"},"geometry":{"type":"Point","coordinates":[-2.8833796,53.7869046]}},{"type":"Feature","properties":{"name":"Moss Side"},"geometry":{"type":"Point","coordinates":[-2.9429624,53.7647531]}},{"type":"Feature","properties":{"name":"Silverdale"},"geometry":{"type":"Point","coordinates":[-2.8037976,54.1693432]}},{"type":"Feature","properties":{"name":"Carnforth"},"geometry":{"type":"Point","coordinates":[-2.7714886,54.1296244]}},{"type":"Feature","properties":{"name":"Layton"},"geometry":{"type":"Point","coordinates":[-3.0299186,53.8353457]}},{"type":"Feature","properties":{"name":"Pembroke Dock"},"geometry":{"type":"Point","coordinates":[-4.9375963,51.6938827]}},{"type":"Feature","properties":{"name":"Euxton Balshaw Lane"},"geometry":{"type":"Point","coordinates":[-2.6716808,53.6598241]}},{"type":"Feature","properties":{"name":"Ibrox"},"geometry":{"type":"Point","coordinates":[-4.3048819,55.854705]}},{"type":"Feature","properties":{"name":"Govan"},"geometry":{"type":"Point","coordinates":[-4.3106046,55.8622526]}},{"type":"Feature","properties":{"name":"Kingscote"},"geometry":{"type":"Point","coordinates":[-0.0483841,51.1030758]}},{"type":"Feature","properties":{"name":"Horsted Keynes"},"geometry":{"type":"Point","coordinates":[-0.0448579,51.046255]}},{"type":"Feature","properties":{"name":"Sheffield Park"},"geometry":{"type":"Point","coordinates":[-0.0012346,50.9955844]}},{"type":"Feature","properties":{"name":"Groombridge"},"geometry":{"type":"Point","coordinates":[0.1880755,51.1122821]}},{"type":"Feature","properties":{"name":"Tunbridge Wells West"},"geometry":{"type":"Point","coordinates":[0.2526778,51.1235888]}},{"type":"Feature","properties":{"name":"Tenterden Town"},"geometry":{"type":"Point","coordinates":[0.6852189,51.0703263]}},{"type":"Feature","properties":{"name":"Rolvenden"},"geometry":{"type":"Point","coordinates":[0.6600068,51.0639927]}},{"type":"Feature","properties":{"name":"Wittersham Road"},"geometry":{"type":"Point","coordinates":[0.6611109,51.0279011]}},{"type":"Feature","properties":{"name":"Northiam"},"geometry":{"type":"Point","coordinates":[0.613833,51.0093928]}},{"type":"Feature","properties":{"name":"Bodiam"},"geometry":{"type":"Point","coordinates":[0.5389926,50.9966492]}},{"type":"Feature","properties":{"name":"Hythe"},"geometry":{"type":"Point","coordinates":[1.0719648,51.0712703]}},{"type":"Feature","properties":{"name":"New Romney"},"geometry":{"type":"Point","coordinates":[0.954204,50.9859473]}},{"type":"Feature","properties":{"name":"Romney Sands"},"geometry":{"type":"Point","coordinates":[0.963136,50.9587303]}},{"type":"Feature","properties":{"name":"Dungeness"},"geometry":{"type":"Point","coordinates":[0.9705863,50.914493]}},{"type":"Feature","properties":{"name":"Bramhall"},"geometry":{"type":"Point","coordinates":[-2.1623117,53.3601721]}},{"type":"Feature","properties":{"name":"Queenborough"},"geometry":{"type":"Point","coordinates":[0.7497742,51.4159485]}},{"type":"Feature","properties":{"name":"Sheerness-on-Sea"},"geometry":{"type":"Point","coordinates":[0.7583155,51.4407137]}},{"type":"Feature","properties":{"name":"Kemsley"},"geometry":{"type":"Point","coordinates":[0.7349601,51.3617377]}},{"type":"Feature","properties":{"name":"Hockley"},"geometry":{"type":"Point","coordinates":[0.6591006,51.6036509]}},{"type":"Feature","properties":{"name":"St Enoch"},"geometry":{"type":"Point","coordinates":[-4.2551909,55.8575378]}},{"type":"Feature","properties":{"name":"Buchanan Street"},"geometry":{"type":"Point","coordinates":[-4.253398,55.862413]}},{"type":"Feature","properties":{"name":"Bridge Street"},"geometry":{"type":"Point","coordinates":[-4.2582198,55.8519813]}},{"type":"Feature","properties":{"name":"St George's Cross"},"geometry":{"type":"Point","coordinates":[-4.2691792,55.8712226]}},{"type":"Feature","properties":{"name":"Burnley Central"},"geometry":{"type":"Point","coordinates":[-2.2447896,53.7935522]}},{"type":"Feature","properties":{"name":"Burnley Barracks"},"geometry":{"type":"Point","coordinates":[-2.2579533,53.790928]}},{"type":"Feature","properties":{"name":"Nelson"},"geometry":{"type":"Point","coordinates":[-2.2142644,53.8347164]}},{"type":"Feature","properties":{"name":"Brierfield"},"geometry":{"type":"Point","coordinates":[-2.236243,53.8243669]}},{"type":"Feature","properties":{"name":"Kinning Park"},"geometry":{"type":"Point","coordinates":[-4.2878813,55.8503817]}},{"type":"Feature","properties":{"name":"Redcar East"},"geometry":{"type":"Point","coordinates":[-1.0519248,54.609055]}},{"type":"Feature","properties":{"name":"Worthing"},"geometry":{"type":"Point","coordinates":[-0.3761766,50.8186425]}},{"type":"Feature","properties":{"name":"Blackhorse Road"},"geometry":{"type":"Point","coordinates":[-0.0416453,51.5867174]}},{"type":"Feature","properties":{"name":"Denton"},"geometry":{"type":"Point","coordinates":[-2.1309424,53.4574018]}},{"type":"Feature","properties":{"name":"Reddish South"},"geometry":{"type":"Point","coordinates":[-2.1586843,53.4359636]}},{"type":"Feature","properties":{"name":"Middlewood"},"geometry":{"type":"Point","coordinates":[-2.0835284,53.3600557]}},{"type":"Feature","properties":{"name":"Southport"},"geometry":{"type":"Point","coordinates":[-3.0028279,53.6468651]}},{"type":"Feature","properties":{"name":"West Street"},"geometry":{"type":"Point","coordinates":[-4.265835,55.8495393]}},{"type":"Feature","properties":{"name":"Shields Road"},"geometry":{"type":"Point","coordinates":[-4.2753727,55.8499812]}},{"type":"Feature","properties":{"name":"Mosspark"},"geometry":{"type":"Point","coordinates":[-4.3471881,55.8406701]}},{"type":"Feature","properties":{"name":"Corkerhill"},"geometry":{"type":"Point","coordinates":[-4.3343276,55.8374699]}},{"type":"Feature","properties":{"name":"Tygwyn"},"geometry":{"type":"Point","coordinates":[-4.0785957,52.893747]}},{"type":"Feature","properties":{"name":"Taplow"},"geometry":{"type":"Point","coordinates":[-0.6818864,51.5233325]}},{"type":"Feature","properties":{"name":"Higham"},"geometry":{"type":"Point","coordinates":[0.4660183,51.426953]}},{"type":"Feature","properties":{"name":"West Worthing"},"geometry":{"type":"Point","coordinates":[-0.3933519,50.818373]}},{"type":"Feature","properties":{"name":"Trimley"},"geometry":{"type":"Point","coordinates":[1.3194153,51.9766523]}},{"type":"Feature","properties":{"name":"St Andrews Road"},"geometry":{"type":"Point","coordinates":[-2.6964411,51.5124477]}},{"type":"Feature","properties":{"name":"Shirehampton"},"geometry":{"type":"Point","coordinates":[-2.6789317,51.4842773]}},{"type":"Feature","properties":{"name":"Pemberton"},"geometry":{"type":"Point","coordinates":[-2.6695158,53.530526]}},{"type":"Feature","properties":{"name":"Wigan Wallgate"},"geometry":{"type":"Point","coordinates":[-2.6342351,53.5450582]}},{"type":"Feature","properties":{"name":"Wishaw"},"geometry":{"type":"Point","coordinates":[-3.926309,55.772201]}},{"type":"Feature","properties":{"name":"Uddingston"},"geometry":{"type":"Point","coordinates":[-4.0870218,55.8235614]}},{"type":"Feature","properties":{"name":"Cambuslang"},"geometry":{"type":"Point","coordinates":[-4.1730177,55.8194533]}},{"type":"Feature","properties":{"name":"Airbles"},"geometry":{"type":"Point","coordinates":[-3.9946997,55.7820658]}},{"type":"Feature","properties":{"name":"Hamilton West"},"geometry":{"type":"Point","coordinates":[-4.055493,55.7793567]}},{"type":"Feature","properties":{"name":"Blantyre"},"geometry":{"type":"Point","coordinates":[-4.0868786,55.7972986]}},{"type":"Feature","properties":{"name":"Burnside"},"geometry":{"type":"Point","coordinates":[-4.2031241,55.8169392]}},{"type":"Feature","properties":{"name":"Croftfoot"},"geometry":{"type":"Point","coordinates":[-4.2282424,55.8182468]}},{"type":"Feature","properties":{"name":"Kings Park"},"geometry":{"type":"Point","coordinates":[-4.2462819,55.8195122]}},{"type":"Feature","properties":{"name":"Johnstone"},"geometry":{"type":"Point","coordinates":[-4.5030863,55.8342806]}},{"type":"Feature","properties":{"name":"Howwood"},"geometry":{"type":"Point","coordinates":[-4.5625091,55.8105718]}},{"type":"Feature","properties":{"name":"Glengarnock"},"geometry":{"type":"Point","coordinates":[-4.6748972,55.7389842]}},{"type":"Feature","properties":{"name":"Dalry"},"geometry":{"type":"Point","coordinates":[-4.7111352,55.70599]}},{"type":"Feature","properties":{"name":"Rainhill"},"geometry":{"type":"Point","coordinates":[-2.7662934,53.4172066]}},{"type":"Feature","properties":{"name":"Orrell"},"geometry":{"type":"Point","coordinates":[-2.7091136,53.53016]}},{"type":"Feature","properties":{"name":"Upholland"},"geometry":{"type":"Point","coordinates":[-2.7410475,53.5284097]}},{"type":"Feature","properties":{"name":"Rainford"},"geometry":{"type":"Point","coordinates":[-2.7885785,53.5171092]}},{"type":"Feature","properties":{"name":"Irvine"},"geometry":{"type":"Point","coordinates":[-4.6747819,55.6111945]}},{"type":"Feature","properties":{"name":"Stevenston"},"geometry":{"type":"Point","coordinates":[-4.7501074,55.6342495]}},{"type":"Feature","properties":{"name":"Ardrossan South Beach"},"geometry":{"type":"Point","coordinates":[-4.8005345,55.6411104]}},{"type":"Feature","properties":{"name":"Ardrossan Town"},"geometry":{"type":"Point","coordinates":[-4.8120759,55.640213]}},{"type":"Feature","properties":{"name":"Ardrossan Harbour"},"geometry":{"type":"Point","coordinates":[-4.8202505,55.6395086]}},{"type":"Feature","properties":{"name":"West Kilbride"},"geometry":{"type":"Point","coordinates":[-4.8513782,55.6964342]}},{"type":"Feature","properties":{"name":"Fairlie"},"geometry":{"type":"Point","coordinates":[-4.8531864,55.7518932]}},{"type":"Feature","properties":{"name":"Largs"},"geometry":{"type":"Point","coordinates":[-4.8670329,55.7924967]}},{"type":"Feature","properties":{"name":"Maryhill"},"geometry":{"type":"Point","coordinates":[-4.3011492,55.8975029]}},{"type":"Feature","properties":{"name":"Kennishead"},"geometry":{"type":"Point","coordinates":[-4.324607,55.8134577]}},{"type":"Feature","properties":{"name":"Nitshill"},"geometry":{"type":"Point","coordinates":[-4.3604363,55.8118935]}},{"type":"Feature","properties":{"name":"Kirkby"},"geometry":{"type":"Point","coordinates":[-2.9028054,53.4863899]}},{"type":"Feature","properties":{"name":"Aintree"},"geometry":{"type":"Point","coordinates":[-2.9563311,53.4738148]}},{"type":"Feature","properties":{"name":"Waterloo"},"geometry":{"type":"Point","coordinates":[-3.0251924,53.4746595]}},{"type":"Feature","properties":{"name":"Formby"},"geometry":{"type":"Point","coordinates":[-3.0709185,53.5543155]}},{"type":"Feature","properties":{"name":"Ainsdale"},"geometry":{"type":"Point","coordinates":[-3.04264,53.6018568]}},{"type":"Feature","properties":{"name":"Seaforth & Litherland"},"geometry":{"type":"Point","coordinates":[-3.0047956,53.4655761]}},{"type":"Feature","properties":{"name":"Bootle New Strand"},"geometry":{"type":"Point","coordinates":[-2.9946156,53.4527853]}},{"type":"Feature","properties":{"name":"Bootle Oriel Road"},"geometry":{"type":"Point","coordinates":[-2.9956678,53.4467]}},{"type":"Feature","properties":{"name":"Pollokshaws East"},"geometry":{"type":"Point","coordinates":[-4.2871464,55.8248032]}},{"type":"Feature","properties":{"name":"Langside"},"geometry":{"type":"Point","coordinates":[-4.2763033,55.8209593]}},{"type":"Feature","properties":{"name":"Crosshill"},"geometry":{"type":"Point","coordinates":[-4.2566597,55.833259]}},{"type":"Feature","properties":{"name":"Queens Park"},"geometry":{"type":"Point","coordinates":[-4.2669649,55.8353494]}},{"type":"Feature","properties":{"name":"Dunlop"},"geometry":{"type":"Point","coordinates":[-4.5323997,55.7119142]}},{"type":"Feature","properties":{"name":"Stewarton"},"geometry":{"type":"Point","coordinates":[-4.518166,55.68208]}},{"type":"Feature","properties":{"name":"Kilmaurs"},"geometry":{"type":"Point","coordinates":[-4.5305498,55.6371026]}},{"type":"Feature","properties":{"name":"Maybole"},"geometry":{"type":"Point","coordinates":[-4.6853779,55.3546492]}},{"type":"Feature","properties":{"name":"Girvan"},"geometry":{"type":"Point","coordinates":[-4.8480843,55.2462778]}},{"type":"Feature","properties":{"name":"Barrhill"},"geometry":{"type":"Point","coordinates":[-4.7821386,55.0975281]}},{"type":"Feature","properties":{"name":"Stranraer"},"geometry":{"type":"Point","coordinates":[-5.0246884,54.9092782]}},{"type":"Feature","properties":{"name":"Dumbreck"},"geometry":{"type":"Point","coordinates":[-4.3007989,55.8449511]}},{"type":"Feature","properties":{"name":"Bare Lane"},"geometry":{"type":"Point","coordinates":[-2.8349663,54.0746566]}},{"type":"Feature","properties":{"name":"Morecambe"},"geometry":{"type":"Point","coordinates":[-2.8685482,54.0703282]}},{"type":"Feature","properties":{"name":"Heysham Port"},"geometry":{"type":"Point","coordinates":[-2.912999,54.0333273]}},{"type":"Feature","properties":{"name":"Greenock West"},"geometry":{"type":"Point","coordinates":[-4.767762,55.9472002]}},{"type":"Feature","properties":{"name":"Inverkip"},"geometry":{"type":"Point","coordinates":[-4.8723695,55.9060729]}},{"type":"Feature","properties":{"name":"Wemyss Bay"},"geometry":{"type":"Point","coordinates":[-4.8893143,55.8762565]}},{"type":"Feature","properties":{"name":"Mount Vernon"},"geometry":{"type":"Point","coordinates":[-4.1326839,55.8404655]}},{"type":"Feature","properties":{"name":"Bargeddie"},"geometry":{"type":"Point","coordinates":[-4.0737519,55.8512996]}},{"type":"Feature","properties":{"name":"Baillieston"},"geometry":{"type":"Point","coordinates":[-4.1137169,55.8445129]}},{"type":"Feature","properties":{"name":"Falmouth Docks"},"geometry":{"type":"Point","coordinates":[-5.0556071,50.150832]}},{"type":"Feature","properties":{"name":"Falmouth Town"},"geometry":{"type":"Point","coordinates":[-5.0648535,50.148352]}},{"type":"Feature","properties":{"name":"Penmere"},"geometry":{"type":"Point","coordinates":[-5.0832589,50.1503799]}},{"type":"Feature","properties":{"name":"Penryn"},"geometry":{"type":"Point","coordinates":[-5.1115102,50.1705802]}},{"type":"Feature","properties":{"name":"Perranwell"},"geometry":{"type":"Point","coordinates":[-5.1119985,50.2166069]}},{"type":"Feature","properties":{"name":"Menheniot"},"geometry":{"type":"Point","coordinates":[-4.4095333,50.4266018]}},{"type":"Feature","properties":{"name":"St Germans"},"geometry":{"type":"Point","coordinates":[-4.3084706,50.3941993]}},{"type":"Feature","properties":{"name":"Saltash"},"geometry":{"type":"Point","coordinates":[-4.2091547,50.4072015]}},{"type":"Feature","properties":{"name":"Keyham"},"geometry":{"type":"Point","coordinates":[-4.1798923,50.3899651]}},{"type":"Feature","properties":{"name":"Holytown"},"geometry":{"type":"Point","coordinates":[-3.9734878,55.812564]}},{"type":"Feature","properties":{"name":"Shotts"},"geometry":{"type":"Point","coordinates":[-3.7990785,55.8185654]}},{"type":"Feature","properties":{"name":"Addiewell"},"geometry":{"type":"Point","coordinates":[-3.6063049,55.8434492]}},{"type":"Feature","properties":{"name":"Fauldhouse"},"geometry":{"type":"Point","coordinates":[-3.7192484,55.8224448]}},{"type":"Feature","properties":{"name":"Breich"},"geometry":{"type":"Point","coordinates":[-3.6672602,55.8275461]}},{"type":"Feature","properties":{"name":"Warcop"},"geometry":{"type":"Point","coordinates":[-2.3825907,54.5354896]}},{"type":"Feature","properties":{"name":"Kirkby Stephen East"},"geometry":{"type":"Point","coordinates":[-2.357978,54.4625907]}},{"type":"Feature","properties":{"name":"Dingle Road"},"geometry":{"type":"Point","coordinates":[-3.1798165,51.4399232]}},{"type":"Feature","properties":{"name":"Cogan"},"geometry":{"type":"Point","coordinates":[-3.189048,51.4461638]}},{"type":"Feature","properties":{"name":"Eastbrook"},"geometry":{"type":"Point","coordinates":[-3.2062588,51.4378361]}},{"type":"Feature","properties":{"name":"Dinas Powys"},"geometry":{"type":"Point","coordinates":[-3.219067,51.4312712]}},{"type":"Feature","properties":{"name":"Cardiff Bay"},"geometry":{"type":"Point","coordinates":[-3.1667818,51.4676414]}},{"type":"Feature","properties":{"name":"Leasowe"},"geometry":{"type":"Point","coordinates":[-3.0999836,53.4080707]}},{"type":"Feature","properties":{"name":"Moreton"},"geometry":{"type":"Point","coordinates":[-3.1132099,53.407278]}},{"type":"Feature","properties":{"name":"Upton"},"geometry":{"type":"Point","coordinates":[-3.084131,53.3864448]}},{"type":"Feature","properties":{"name":"Romford"},"geometry":{"type":"Point","coordinates":[0.1826107,51.5747271]}},{"type":"Feature","properties":{"name":"Angmering"},"geometry":{"type":"Point","coordinates":[-0.4881271,50.8165151]}},{"type":"Feature","properties":{"name":"Taffs Well"},"geometry":{"type":"Point","coordinates":[-3.2638929,51.5412435]}},{"type":"Feature","properties":{"name":"Treforest Estate"},"geometry":{"type":"Point","coordinates":[-3.2902376,51.5681608]}},{"type":"Feature","properties":{"name":"Trefforest"},"geometry":{"type":"Point","coordinates":[-3.3249641,51.591903]}},{"type":"Feature","properties":{"name":"Southwick"},"geometry":{"type":"Point","coordinates":[-0.2371421,50.8324714]}},{"type":"Feature","properties":{"name":"Fort Matilda"},"geometry":{"type":"Point","coordinates":[-4.7952091,55.9589194]}},{"type":"Feature","properties":{"name":"Wood End"},"geometry":{"type":"Point","coordinates":[-1.844423,52.3442757]}},{"type":"Feature","properties":{"name":"Stratford-upon-Avon"},"geometry":{"type":"Point","coordinates":[-1.7163038,52.1949449]}},{"type":"Feature","properties":{"name":"Whitlocks End"},"geometry":{"type":"Point","coordinates":[-1.8514355,52.3919065]}},{"type":"Feature","properties":{"name":"Wythall"},"geometry":{"type":"Point","coordinates":[-1.8654559,52.3801248]}},{"type":"Feature","properties":{"name":"Henley-in-Arden"},"geometry":{"type":"Point","coordinates":[-1.7839992,52.2914546]}},{"type":"Feature","properties":{"name":"Stratford-upon-Avon Parkway"},"geometry":{"type":"Point","coordinates":[-1.7304498,52.2065538]}},{"type":"Feature","properties":{"name":"Radyr"},"geometry":{"type":"Point","coordinates":[-3.2490261,51.5165903]}},{"type":"Feature","properties":{"name":"Newton St Cyres"},"geometry":{"type":"Point","coordinates":[-3.5888232,50.7787677]}},{"type":"Feature","properties":{"name":"Crediton"},"geometry":{"type":"Point","coordinates":[-3.6467418,50.7833186]}},{"type":"Feature","properties":{"name":"Yeoford"},"geometry":{"type":"Point","coordinates":[-3.7266919,50.776782]}},{"type":"Feature","properties":{"name":"Copplestone"},"geometry":{"type":"Point","coordinates":[-3.7512975,50.8142667]}},{"type":"Feature","properties":{"name":"Morchard Road"},"geometry":{"type":"Point","coordinates":[-3.7761414,50.8316895]}},{"type":"Feature","properties":{"name":"Lapford"},"geometry":{"type":"Point","coordinates":[-3.8107456,50.8570746]}},{"type":"Feature","properties":{"name":"Eggesford"},"geometry":{"type":"Point","coordinates":[-3.8751093,50.8876902]}},{"type":"Feature","properties":{"name":"Kings Nympton"},"geometry":{"type":"Point","coordinates":[-3.9054672,50.9363016]}},{"type":"Feature","properties":{"name":"Umberleigh"},"geometry":{"type":"Point","coordinates":[-3.9827904,50.9965513]}},{"type":"Feature","properties":{"name":"Chapelton"},"geometry":{"type":"Point","coordinates":[-4.0245509,51.016229]}},{"type":"Feature","properties":{"name":"Okehampton"},"geometry":{"type":"Point","coordinates":[-3.9964221,50.7323333]}},{"type":"Feature","properties":{"name":"Bere Ferrers"},"geometry":{"type":"Point","coordinates":[-4.1814548,50.4510874]}},{"type":"Feature","properties":{"name":"Bere Alston"},"geometry":{"type":"Point","coordinates":[-4.2003187,50.4856076]}},{"type":"Feature","properties":{"name":"Calstock"},"geometry":{"type":"Point","coordinates":[-4.208583,50.497994]}},{"type":"Feature","properties":{"name":"Coombe Junction Halt"},"geometry":{"type":"Point","coordinates":[-4.4813527,50.4451584]}},{"type":"Feature","properties":{"name":"St Keyne Wishing Well Halt"},"geometry":{"type":"Point","coordinates":[-4.4633482,50.4228214]}},{"type":"Feature","properties":{"name":"Causeland"},"geometry":{"type":"Point","coordinates":[-4.4664151,50.4056895]}},{"type":"Feature","properties":{"name":"Looe"},"geometry":{"type":"Point","coordinates":[-4.4563912,50.3595613]}},{"type":"Feature","properties":{"name":"Warblington"},"geometry":{"type":"Point","coordinates":[-0.9671209,50.8535025]}},{"type":"Feature","properties":{"name":"Maesteg"},"geometry":{"type":"Point","coordinates":[-3.6549668,51.609681]}},{"type":"Feature","properties":{"name":"Garth (Bridgend)"},"geometry":{"type":"Point","coordinates":[-3.6428149,51.5967074]}},{"type":"Feature","properties":{"name":"Rushcliffe Halt"},"geometry":{"type":"Point","coordinates":[-1.1822374,52.8438171]}},{"type":"Feature","properties":{"name":"Wansford (NVR)"},"geometry":{"type":"Point","coordinates":[-0.3898649,52.5681509]}},{"type":"Feature","properties":{"name":"Orton Mere (NVR)"},"geometry":{"type":"Point","coordinates":[-0.2800883,52.5600241]}},{"type":"Feature","properties":{"name":"Swanage"},"geometry":{"type":"Point","coordinates":[-1.9602545,50.6099662]}},{"type":"Feature","properties":{"name":"Devonport"},"geometry":{"type":"Point","coordinates":[-4.1701007,50.3785212]}},{"type":"Feature","properties":{"name":"Dockyard"},"geometry":{"type":"Point","coordinates":[-4.1760319,50.3823705]}},{"type":"Feature","properties":{"name":"Stanhope"},"geometry":{"type":"Point","coordinates":[-2.0032455,54.7433099]}},{"type":"Feature","properties":{"name":"Devil's Bridge / Pontarfynach"},"geometry":{"type":"Point","coordinates":[-3.8545939,52.376061]}},{"type":"Feature","properties":{"name":"Rhiwfron"},"geometry":{"type":"Point","coordinates":[-3.8695391,52.38375]}},{"type":"Feature","properties":{"name":"Aberffrwd"},"geometry":{"type":"Point","coordinates":[-3.9311239,52.3907764]}},{"type":"Feature","properties":{"name":"Capel Bangor"},"geometry":{"type":"Point","coordinates":[-3.9889123,52.3993745]}},{"type":"Feature","properties":{"name":"Llanbadarn"},"geometry":{"type":"Point","coordinates":[-4.0618245,52.4059929]}},{"type":"Feature","properties":{"name":"Clapham South"},"geometry":{"type":"Point","coordinates":[-0.1475523,51.4528372]}},{"type":"Feature","properties":{"name":"Balham"},"geometry":{"type":"Point","coordinates":[-0.1528977,51.4433857]}},{"type":"Feature","properties":{"name":"Tooting Broadway"},"geometry":{"type":"Point","coordinates":[-0.1682905,51.4277387]}},{"type":"Feature","properties":{"name":"Colliers Wood"},"geometry":{"type":"Point","coordinates":[-0.1778626,51.4182747]}},{"type":"Feature","properties":{"name":"South Wimbledon"},"geometry":{"type":"Point","coordinates":[-0.1926457,51.4151759]}},{"type":"Feature","properties":{"name":"Fishbourne"},"geometry":{"type":"Point","coordinates":[-0.8155144,50.8391034]}},{"type":"Feature","properties":{"name":"Hunmanby"},"geometry":{"type":"Point","coordinates":[-0.3145738,54.1739878]}},{"type":"Feature","properties":{"name":"Redbridge"},"geometry":{"type":"Point","coordinates":[0.0454097,51.5763203]}},{"type":"Feature","properties":{"name":"St James' Park"},"geometry":{"type":"Point","coordinates":[-3.5225718,50.7309668]}},{"type":"Feature","properties":{"name":"Glossop"},"geometry":{"type":"Point","coordinates":[-1.950017,53.4448108]}},{"type":"Feature","properties":{"name":"Dinting"},"geometry":{"type":"Point","coordinates":[-1.9705971,53.4493243]}},{"type":"Feature","properties":{"name":"Broadbottom"},"geometry":{"type":"Point","coordinates":[-2.0160042,53.4407902]}},{"type":"Feature","properties":{"name":"Hattersley"},"geometry":{"type":"Point","coordinates":[-2.039436,53.4449376]}},{"type":"Feature","properties":{"name":"Godley"},"geometry":{"type":"Point","coordinates":[-2.0556364,53.4522488]}},{"type":"Feature","properties":{"name":"Woodley"},"geometry":{"type":"Point","coordinates":[-2.0928676,53.4291998]}},{"type":"Feature","properties":{"name":"Rose Hill Marple"},"geometry":{"type":"Point","coordinates":[-2.0765086,53.3960432]}},{"type":"Feature","properties":{"name":"Hyde Central"},"geometry":{"type":"Point","coordinates":[-2.0850769,53.4513383]}},{"type":"Feature","properties":{"name":"Surbiton"},"geometry":{"type":"Point","coordinates":[-0.3039992,51.3924111]}},{"type":"Feature","properties":{"name":"Aldermaston"},"geometry":{"type":"Point","coordinates":[-1.1367025,51.4022099]}},{"type":"Feature","properties":{"name":"Midgham"},"geometry":{"type":"Point","coordinates":[-1.1782912,51.3960664]}},{"type":"Feature","properties":{"name":"Newbury Racecourse"},"geometry":{"type":"Point","coordinates":[-1.306971,51.398654]}},{"type":"Feature","properties":{"name":"Bruton"},"geometry":{"type":"Point","coordinates":[-2.4471521,51.1116892]}},{"type":"Feature","properties":{"name":"Castle Cary"},"geometry":{"type":"Point","coordinates":[-2.5224232,51.099857]}},{"type":"Feature","properties":{"name":"Melksham"},"geometry":{"type":"Point","coordinates":[-2.144607,51.3801725]}},{"type":"Feature","properties":{"name":"Ptarmigan Station"},"geometry":{"type":"Point","coordinates":[-3.6453886,57.1240153]}},{"type":"Feature","properties":{"name":"Worstead"},"geometry":{"type":"Point","coordinates":[1.4040725,52.7773534]}},{"type":"Feature","properties":{"name":"Llanrwst"},"geometry":{"type":"Point","coordinates":[-3.7946636,53.1390542]}},{"type":"Feature","properties":{"name":"Gogledd Llanrwst / North Llanrwst"},"geometry":{"type":"Point","coordinates":[-3.8028221,53.144122]}},{"type":"Feature","properties":{"name":"Dolgarrog"},"geometry":{"type":"Point","coordinates":[-3.8231367,53.1859355]}},{"type":"Feature","properties":{"name":"Tal-y-Cafn"},"geometry":{"type":"Point","coordinates":[-3.8182114,53.2285073]}},{"type":"Feature","properties":{"name":"Lympstone Village"},"geometry":{"type":"Point","coordinates":[-3.4310966,50.6484198]}},{"type":"Feature","properties":{"name":"Motspur Park"},"geometry":{"type":"Point","coordinates":[-0.2396076,51.3948747]}},{"type":"Feature","properties":{"name":"Dudley Port"},"geometry":{"type":"Point","coordinates":[-2.0492538,52.524461]}},{"type":"Feature","properties":{"name":"South Merton"},"geometry":{"type":"Point","coordinates":[-0.2055176,51.4033264]}},{"type":"Feature","properties":{"name":"Redland"},"geometry":{"type":"Point","coordinates":[-2.5987661,51.4684317]}},{"type":"Feature","properties":{"name":"Pilning"},"geometry":{"type":"Point","coordinates":[-2.6267285,51.556377]}},{"type":"Feature","properties":{"name":"Woburn Sands"},"geometry":{"type":"Point","coordinates":[-0.654557,52.0181089]}},{"type":"Feature","properties":{"name":"Bow Brickhill"},"geometry":{"type":"Point","coordinates":[-0.6962178,52.0042693]}},{"type":"Feature","properties":{"name":"Lynmouth Bay"},"geometry":{"type":"Point","coordinates":[-3.8323694,51.2316264]}},{"type":"Feature","properties":{"name":"Upwey"},"geometry":{"type":"Point","coordinates":[-2.4660817,50.6484492]}},{"type":"Feature","properties":{"name":"Maiden Newton"},"geometry":{"type":"Point","coordinates":[-2.569663,50.7802255]}},{"type":"Feature","properties":{"name":"Chetnole"},"geometry":{"type":"Point","coordinates":[-2.5729619,50.866344]}},{"type":"Feature","properties":{"name":"Yetminster"},"geometry":{"type":"Point","coordinates":[-2.5738017,50.8957019]}},{"type":"Feature","properties":{"name":"Thornford"},"geometry":{"type":"Point","coordinates":[-2.5791402,50.9106779]}},{"type":"Feature","properties":{"name":"Yeovil Pen Mill"},"geometry":{"type":"Point","coordinates":[-2.61304,50.9446866]}},{"type":"Feature","properties":{"name":"Manea"},"geometry":{"type":"Point","coordinates":[0.1778063,52.4978134]}},{"type":"Feature","properties":{"name":"Hendon"},"geometry":{"type":"Point","coordinates":[-0.2388805,51.5802174]}},{"type":"Feature","properties":{"name":"Furze Platt"},"geometry":{"type":"Point","coordinates":[-0.7284148,51.5331544]}},{"type":"Feature","properties":{"name":"Radlett"},"geometry":{"type":"Point","coordinates":[-0.3170888,51.6853254]}},{"type":"Feature","properties":{"name":"Grateley"},"geometry":{"type":"Point","coordinates":[-1.6204438,51.1701959]}},{"type":"Feature","properties":{"name":"Christchurch"},"geometry":{"type":"Point","coordinates":[-1.7847306,50.7383709]}},{"type":"Feature","properties":{"name":"Durrington-on-Sea"},"geometry":{"type":"Point","coordinates":[-0.4114787,50.8174419]}},{"type":"Feature","properties":{"name":"Plas-y-nant"},"geometry":{"type":"Point","coordinates":[-4.1697854,53.0829482]}},{"type":"Feature","properties":{"name":"Waunfawr"},"geometry":{"type":"Point","coordinates":[-4.2016482,53.1063472]}},{"type":"Feature","properties":{"name":"Widdrington"},"geometry":{"type":"Point","coordinates":[-1.6162192,55.2411444]}},{"type":"Feature","properties":{"name":"Medstead and Four Marks"},"geometry":{"type":"Point","coordinates":[-1.0457584,51.1134074]}},{"type":"Feature","properties":{"name":"Bitton"},"geometry":{"type":"Point","coordinates":[-2.4764729,51.4308406]}},{"type":"Feature","properties":{"name":"Gunnislake"},"geometry":{"type":"Point","coordinates":[-4.2195227,50.5166278]}},{"type":"Feature","properties":{"name":"Cark and Cartmel"},"geometry":{"type":"Point","coordinates":[-2.9740018,54.1779678]}},{"type":"Feature","properties":{"name":"Dalton"},"geometry":{"type":"Point","coordinates":[-3.1788418,54.1542369]}},{"type":"Feature","properties":{"name":"Foxfield"},"geometry":{"type":"Point","coordinates":[-3.2159351,54.2585965]}},{"type":"Feature","properties":{"name":"Silecroft"},"geometry":{"type":"Point","coordinates":[-3.3346818,54.2260891]}},{"type":"Feature","properties":{"name":"Seascale"},"geometry":{"type":"Point","coordinates":[-3.4851711,54.3962884]}},{"type":"Feature","properties":{"name":"Nethertown"},"geometry":{"type":"Point","coordinates":[-3.5656239,54.4562273]}},{"type":"Feature","properties":{"name":"Harrington"},"geometry":{"type":"Point","coordinates":[-3.5655496,54.6135197]}},{"type":"Feature","properties":{"name":"Flimby"},"geometry":{"type":"Point","coordinates":[-3.5205306,54.6899875]}},{"type":"Feature","properties":{"name":"Dalston"},"geometry":{"type":"Point","coordinates":[-2.9885758,54.846165]}},{"type":"Feature","properties":{"name":"Newstead"},"geometry":{"type":"Point","coordinates":[-1.2218222,53.069977]}},{"type":"Feature","properties":{"name":"Lakenheath"},"geometry":{"type":"Point","coordinates":[0.5344379,52.4474326]}},{"type":"Feature","properties":{"name":"Abererch"},"geometry":{"type":"Point","coordinates":[-4.3749074,52.8983924]}},{"type":"Feature","properties":{"name":"Penychain"},"geometry":{"type":"Point","coordinates":[-4.338436,52.9029185]}},{"type":"Feature","properties":{"name":"Maghull"},"geometry":{"type":"Point","coordinates":[-2.9310252,53.5064699]}},{"type":"Feature","properties":{"name":"Llanaber"},"geometry":{"type":"Point","coordinates":[-4.0771655,52.7413979]}},{"type":"Feature","properties":{"name":"Talybont"},"geometry":{"type":"Point","coordinates":[-4.0970877,52.7729002]}},{"type":"Feature","properties":{"name":"Llanbedr"},"geometry":{"type":"Point","coordinates":[-4.1096022,52.8203604]}},{"type":"Feature","properties":{"name":"North Fambridge"},"geometry":{"type":"Point","coordinates":[0.6818704,51.6486404]}},{"type":"Feature","properties":{"name":"Goring-by-Sea"},"geometry":{"type":"Point","coordinates":[-0.4331815,50.8176931]}},{"type":"Feature","properties":{"name":"Lytham"},"geometry":{"type":"Point","coordinates":[-2.9641884,53.7393224]}},{"type":"Feature","properties":{"name":"Ansdell and Fairhaven"},"geometry":{"type":"Point","coordinates":[-2.993513,53.741637]}},{"type":"Feature","properties":{"name":"Squires Gate"},"geometry":{"type":"Point","coordinates":[-3.0501715,53.7769901]}},{"type":"Feature","properties":{"name":"East Worthing"},"geometry":{"type":"Point","coordinates":[-0.3551084,50.821592]}},{"type":"Feature","properties":{"name":"Lancing"},"geometry":{"type":"Point","coordinates":[-0.3232037,50.8270176]}},{"type":"Feature","properties":{"name":"Shoreham-by-Sea"},"geometry":{"type":"Point","coordinates":[-0.2714448,50.8343756]}},{"type":"Feature","properties":{"name":"Fishersgate"},"geometry":{"type":"Point","coordinates":[-0.2195742,50.8342805]}},{"type":"Feature","properties":{"name":"Newby Bridge Halt"},"geometry":{"type":"Point","coordinates":[-2.9739215,54.2696333]}},{"type":"Feature","properties":{"name":"Haverthwaite"},"geometry":{"type":"Point","coordinates":[-3.0000168,54.2497682]}},{"type":"Feature","properties":{"name":"Hadfield"},"geometry":{"type":"Point","coordinates":[-1.9653832,53.4608456]}},{"type":"Feature","properties":{"name":"White Notley"},"geometry":{"type":"Point","coordinates":[0.595265,51.8392682]}},{"type":"Feature","properties":{"name":"Cressing"},"geometry":{"type":"Point","coordinates":[0.578324,51.8519489]}},{"type":"Feature","properties":{"name":"Braintree Freeport"},"geometry":{"type":"Point","coordinates":[0.5681965,51.8692939]}},{"type":"Feature","properties":{"name":"Rayleigh"},"geometry":{"type":"Point","coordinates":[0.6002479,51.5894866]}},{"type":"Feature","properties":{"name":"Rochford"},"geometry":{"type":"Point","coordinates":[0.7021425,51.5816749]}},{"type":"Feature","properties":{"name":"Uttoxeter"},"geometry":{"type":"Point","coordinates":[-1.856515,52.89681]}},{"type":"Feature","properties":{"name":"Blythe Bridge"},"geometry":{"type":"Point","coordinates":[-2.066925,52.9678303]}},{"type":"Feature","properties":{"name":"Longton"},"geometry":{"type":"Point","coordinates":[-2.1372966,52.9900417]}},{"type":"Feature","properties":{"name":"Bearley"},"geometry":{"type":"Point","coordinates":[-1.7497627,52.244974]}},{"type":"Feature","properties":{"name":"Claverdon"},"geometry":{"type":"Point","coordinates":[-1.6964003,52.2771945]}},{"type":"Feature","properties":{"name":"Dunblane"},"geometry":{"type":"Point","coordinates":[-3.9657077,56.1858372]}},{"type":"Feature","properties":{"name":"Unnamed"},"geometry":{"type":"Point","coordinates":[-1.4186178,55.0009858]}},{"type":"Feature","properties":{"name":"Penyffordd"},"geometry":{"type":"Point","coordinates":[-3.0548357,53.1425997]}},{"type":"Feature","properties":{"name":"Cwmbran"},"geometry":{"type":"Point","coordinates":[-3.0160112,51.6570886]}},{"type":"Feature","properties":{"name":"Pontypool and New Inn"},"geometry":{"type":"Point","coordinates":[-3.0135499,51.6973269]}},{"type":"Feature","properties":{"name":"Old Street"},"geometry":{"type":"Point","coordinates":[-0.0876094,51.5256284]}},{"type":"Feature","properties":{"name":"Snowdon Ranger"},"geometry":{"type":"Point","coordinates":[-4.1434263,53.073789]}},{"type":"Feature","properties":{"name":"Downham Market"},"geometry":{"type":"Point","coordinates":[0.3656086,52.6041596]}},{"type":"Feature","properties":{"name":"Scarborough"},"geometry":{"type":"Point","coordinates":[-0.4062351,54.2791479]}},{"type":"Feature","properties":{"name":"Wareham"},"geometry":{"type":"Point","coordinates":[-2.1153281,50.6928778]}},{"type":"Feature","properties":{"name":"Kempston Hardwick"},"geometry":{"type":"Point","coordinates":[-0.5039944,52.0919553]}},{"type":"Feature","properties":{"name":"Millbrook"},"geometry":{"type":"Point","coordinates":[-0.5323576,52.0542365]}},{"type":"Feature","properties":{"name":"Heswall"},"geometry":{"type":"Point","coordinates":[-3.0733539,53.3296666]}},{"type":"Feature","properties":{"name":"Sheringham"},"geometry":{"type":"Point","coordinates":[1.2107897,52.9413671]}},{"type":"Feature","properties":{"name":"West Runton"},"geometry":{"type":"Point","coordinates":[1.2457949,52.9355494]}},{"type":"Feature","properties":{"name":"Cromer"},"geometry":{"type":"Point","coordinates":[1.2916476,52.9300536]}},{"type":"Feature","properties":{"name":"Bromley North"},"geometry":{"type":"Point","coordinates":[0.0177978,51.409198]}},{"type":"Feature","properties":{"name":"Sherburn-in-Elmet"},"geometry":{"type":"Point","coordinates":[-1.2329024,53.7975092]}},{"type":"Feature","properties":{"name":"Roche"},"geometry":{"type":"Point","coordinates":[-4.8307554,50.4186675]}},{"type":"Feature","properties":{"name":"Bugle"},"geometry":{"type":"Point","coordinates":[-4.7919145,50.4002418]}},{"type":"Feature","properties":{"name":"Luxulyan"},"geometry":{"type":"Point","coordinates":[-4.7484178,50.3903538]}},{"type":"Feature","properties":{"name":"St. Columb Road"},"geometry":{"type":"Point","coordinates":[-4.941332,50.3987461]}},{"type":"Feature","properties":{"name":"Aquarium"},"geometry":{"type":"Point","coordinates":[-0.1328775,50.8189413]}},{"type":"Feature","properties":{"name":"Black Rock"},"geometry":{"type":"Point","coordinates":[-0.1111537,50.8145411]}},{"type":"Feature","properties":{"name":"Kenton"},"geometry":{"type":"Point","coordinates":[-0.3166378,51.5815255]}},{"type":"Feature","properties":{"name":"Kemsley Down"},"geometry":{"type":"Point","coordinates":[0.7567947,51.3618635]}},{"type":"Feature","properties":{"name":"Heath High Level"},"geometry":{"type":"Point","coordinates":[-3.181568,51.5168194]}},{"type":"Feature","properties":{"name":"Aber"},"geometry":{"type":"Point","coordinates":[-3.2298096,51.5748662]}},{"type":"Feature","properties":{"name":"Llanbradach"},"geometry":{"type":"Point","coordinates":[-3.2330521,51.6041075]}},{"type":"Feature","properties":{"name":"Burnage"},"geometry":{"type":"Point","coordinates":[-2.2151579,53.4221262]}},{"type":"Feature","properties":{"name":"Redmire"},"geometry":{"type":"Point","coordinates":[-1.9284688,54.3191529]}},{"type":"Feature","properties":{"name":"Wargrave"},"geometry":{"type":"Point","coordinates":[-0.8766558,51.4985546]}},{"type":"Feature","properties":{"name":"Whittlesea"},"geometry":{"type":"Point","coordinates":[-0.1180869,52.5495767]}},{"type":"Feature","properties":{"name":"Monument"},"geometry":{"type":"Point","coordinates":[-1.6131717,54.9740058]}},{"type":"Feature","properties":{"name":"Shenstone"},"geometry":{"type":"Point","coordinates":[-1.844343,52.6392328]}},{"type":"Feature","properties":{"name":"Tutbury and Hatton"},"geometry":{"type":"Point","coordinates":[-1.6821183,52.8641203]}},{"type":"Feature","properties":{"name":"Bishop Auckland"},"geometry":{"type":"Point","coordinates":[-1.6779534,54.6572212]}},{"type":"Feature","properties":{"name":"Shildon"},"geometry":{"type":"Point","coordinates":[-1.6367101,54.6261932]}},{"type":"Feature","properties":{"name":"Dinsdale"},"geometry":{"type":"Point","coordinates":[-1.4671224,54.5149956]}},{"type":"Feature","properties":{"name":"Wymondham Abbey"},"geometry":{"type":"Point","coordinates":[1.1039071,52.5703772]}},{"type":"Feature","properties":{"name":"Kimberley Park"},"geometry":{"type":"Point","coordinates":[1.0518284,52.5910486]}},{"type":"Feature","properties":{"name":"Hardingham"},"geometry":{"type":"Point","coordinates":[1.0246114,52.610697]}},{"type":"Feature","properties":{"name":"Thuxton"},"geometry":{"type":"Point","coordinates":[1.0007009,52.6249388]}},{"type":"Feature","properties":{"name":"Yaxham"},"geometry":{"type":"Point","coordinates":[0.9597314,52.6523738]}},{"type":"Feature","properties":{"name":"Dereham"},