{"type":"FeatureCollection","features":[{"type":"Feature","properties":{"name":"Bruxelles-Midi - Brussel-Zuid"},"geometry":{"type":"Point","coordinates":[4.3360541,50.8357755]}},{"type":"Feature","properties":{"name":"Kortrijk"},"geometry":{"type":"Point","coordinates":[3.2644536,50.8242706]}},{"type":"Feature","properties":{"name":"Verviers-Central"},"geometry":{"type":"Point","coordinates":[5.8551021,50.5883259]}},{"type":"Feature","properties":{"name":"Nivelles"},"geometry":{"type":"Point","coordinates":[4.3354085,50.6011721]}},{"type":"Feature","properties":{"name":"Gent-Dampoort"},"geometry":{"type":"Point","coordinates":[3.7407518,51.0556078]}},{"type":"Feature","properties":{"name":"Denderleeuw"},"geometry":{"type":"Point","coordinates":[4.0714017,50.8918988]}},{"type":"Feature","properties":{"name":"Oudenaarde"},"geometry":{"type":"Point","coordinates":[3.6015888,50.8513899]}},{"type":"Feature","properties":{"name":"Bruxelles-Nord - Brussel-Noord"},"geometry":{"type":"Point","coordinates":[4.3614901,50.8601446]}},{"type":"Feature","properties":{"name":"Thieffry"},"geometry":{"type":"Point","coordinates":[4.4016642,50.8337292]}},{"type":"Feature","properties":{"name":"Zele"},"geometry":{"type":"Point","coordinates":[4.0424143,51.0730461]}},{"type":"Feature","properties":{"name":"Delta"},"geometry":{"type":"Point","coordinates":[4.4041965,50.8185429]}},{"type":"Feature","properties":{"name":"Hankar"},"geometry":{"type":"Point","coordinates":[4.4054332,50.8212957]}},{"type":"Feature","properties":{"name":"Pétillon"},"geometry":{"type":"Point","coordinates":[4.4038813,50.8277223]}},{"type":"Feature","properties":{"name":"Merode"},"geometry":{"type":"Point","coordinates":[4.3979237,50.8394624]}},{"type":"Feature","properties":{"name":"Schuman"},"geometry":{"type":"Point","coordinates":[4.3818382,50.8428062]}},{"type":"Feature","properties":{"name":"Arts-Loi - Kunst-Wet"},"geometry":{"type":"Point","coordinates":[4.36877,50.8455451]}},{"type":"Feature","properties":{"name":"Gare Centrale - Centraal Station"},"geometry":{"type":"Point","coordinates":[4.3586397,50.8465485]}},{"type":"Feature","properties":{"name":"De Brouckère"},"geometry":{"type":"Point","coordinates":[4.3523796,50.8499233]}},{"type":"Feature","properties":{"name":"Sainte-Catherine - Sint-Katelijne"},"geometry":{"type":"Point","coordinates":[4.3478425,50.8521404]}},{"type":"Feature","properties":{"name":"Hôtel des Monnaies - Munthof"},"geometry":{"type":"Point","coordinates":[4.3487828,50.833342]}},{"type":"Feature","properties":{"name":"Louise - Louiza"},"geometry":{"type":"Point","coordinates":[4.3546677,50.8353919]}},{"type":"Feature","properties":{"name":"Porte de Namur - Naamsepoort"},"geometry":{"type":"Point","coordinates":[4.3616931,50.8382614]}},{"type":"Feature","properties":{"name":"Botanique - Kruidtuin"},"geometry":{"type":"Point","coordinates":[4.365713,50.8539544]}},{"type":"Feature","properties":{"name":"Madou"},"geometry":{"type":"Point","coordinates":[4.3691066,50.8499675]}},{"type":"Feature","properties":{"name":"Trône - Troon"},"geometry":{"type":"Point","coordinates":[4.3665164,50.841247]}},{"type":"Feature","properties":{"name":"Beaulieu"},"geometry":{"type":"Point","coordinates":[4.4096433,50.815096]}},{"type":"Feature","properties":{"name":"Demey"},"geometry":{"type":"Point","coordinates":[4.4209192,50.8135301]}},{"type":"Feature","properties":{"name":"Yser - IJzer"},"geometry":{"type":"Point","coordinates":[4.3513146,50.8573007]}},{"type":"Feature","properties":{"name":"Osseghem - Ossegem"},"geometry":{"type":"Point","coordinates":[4.325184,50.8569002]}},{"type":"Feature","properties":{"name":"Beekkant"},"geometry":{"type":"Point","coordinates":[4.3229722,50.8534442]}},{"type":"Feature","properties":{"name":"Gare de l'Ouest - Weststation"},"geometry":{"type":"Point","coordinates":[4.3206513,50.8485097]}},{"type":"Feature","properties":{"name":"Clemenceau"},"geometry":{"type":"Point","coordinates":[4.3308225,50.8411736]}},{"type":"Feature","properties":{"name":"Delacroix"},"geometry":{"type":"Point","coordinates":[4.3242362,50.8452755]}},{"type":"Feature","properties":{"name":"Ribaucourt"},"geometry":{"type":"Point","coordinates":[4.3396697,50.8604772]}},{"type":"Feature","properties":{"name":"Comte de Flandre - Graaf van Vlaanderen"},"geometry":{"type":"Point","coordinates":[4.3402537,50.8548502]}},{"type":"Feature","properties":{"name":"Étangs Noirs - Zwarte Vijvers"},"geometry":{"type":"Point","coordinates":[4.3321841,50.8570847]}},{"type":"Feature","properties":{"name":"Jacques Brel"},"geometry":{"type":"Point","coordinates":[4.3180457,50.843756]}},{"type":"Feature","properties":{"name":"Aumale"},"geometry":{"type":"Point","coordinates":[4.3124915,50.8396805]}},{"type":"Feature","properties":{"name":"Saint-Guidon - Sint-Guido"},"geometry":{"type":"Point","coordinates":[4.305343,50.8349886]}},{"type":"Feature","properties":{"name":"Veeweyde - Veeweide"},"geometry":{"type":"Point","coordinates":[4.3006508,50.8294786]}},{"type":"Feature","properties":{"name":"Bizet"},"geometry":{"type":"Point","coordinates":[4.2970381,50.8249137]}},{"type":"Feature","properties":{"name":"La Roue - Het Rad"},"geometry":{"type":"Point","coordinates":[4.2939154,50.8211173]}},{"type":"Feature","properties":{"name":"CERIA - COOVI"},"geometry":{"type":"Point","coordinates":[4.2896221,50.8162986]}},{"type":"Feature","properties":{"name":"Eddy Merckx"},"geometry":{"type":"Point","coordinates":[4.2807419,50.8167015]}},{"type":"Feature","properties":{"name":"Erasme - Erasmus"},"geometry":{"type":"Point","coordinates":[4.267078,50.8152348]}},{"type":"Feature","properties":{"name":"Belgica"},"geometry":{"type":"Point","coordinates":[4.3368135,50.8684247]}},{"type":"Feature","properties":{"name":"Stuyvenbergh"},"geometry":{"type":"Point","coordinates":[4.3419624,50.886095]}},{"type":"Feature","properties":{"name":"Houba-Brugmann"},"geometry":{"type":"Point","coordinates":[4.3377665,50.8894885]}},{"type":"Feature","properties":{"name":"Heysel - Heizel"},"geometry":{"type":"Point","coordinates":[4.3359769,50.8968737]}},{"type":"Feature","properties":{"name":"Roi Baudouin - Koning Boudewijn"},"geometry":{"type":"Point","coordinates":[4.327778,50.8963504]}},{"type":"Feature","properties":{"name":"Gare du Nord - Noordstation"},"geometry":{"type":"Point","coordinates":[4.3600896,50.8603818]}},{"type":"Feature","properties":{"name":"Maelbeek - Maalbeek"},"geometry":{"type":"Point","coordinates":[4.3769687,50.8438339]}},{"type":"Feature","properties":{"name":"Herrmann-Debroux"},"geometry":{"type":"Point","coordinates":[4.4286923,50.8122156]}},{"type":"Feature","properties":{"name":"Joséphine-Charlotte"},"geometry":{"type":"Point","coordinates":[4.4136974,50.8402731]}},{"type":"Feature","properties":{"name":"Gribaumont"},"geometry":{"type":"Point","coordinates":[4.4184758,50.8424865]}},{"type":"Feature","properties":{"name":"Tomberg"},"geometry":{"type":"Point","coordinates":[4.4257772,50.8442261]}},{"type":"Feature","properties":{"name":"Roodebeek"},"geometry":{"type":"Point","coordinates":[4.4357016,50.8474846]}},{"type":"Feature","properties":{"name":"Vandervelde"},"geometry":{"type":"Point","coordinates":[4.4470948,50.8474288]}},{"type":"Feature","properties":{"name":"Crainhem - Kraainem"},"geometry":{"type":"Point","coordinates":[4.4585462,50.8489121]}},{"type":"Feature","properties":{"name":"Stockel - Stokkel"},"geometry":{"type":"Point","coordinates":[4.4641152,50.8420671]}},{"type":"Feature","properties":{"name":"Mechelen"},"geometry":{"type":"Point","coordinates":[4.483742,51.0177129]}},{"type":"Feature","properties":{"name":"Eeklo"},"geometry":{"type":"Point","coordinates":[3.5753588,51.1807831]}},{"type":"Feature","properties":{"name":"Hainin"},"geometry":{"type":"Point","coordinates":[3.7675823,50.4282344]}},{"type":"Feature","properties":{"name":"Thulin"},"geometry":{"type":"Point","coordinates":[3.7452498,50.4233131]}},{"type":"Feature","properties":{"name":"Bockstael"},"geometry":{"type":"Point","coordinates":[4.347972,50.8788488]}},{"type":"Feature","properties":{"name":"Enghien - Edingen"},"geometry":{"type":"Point","coordinates":[4.0471298,50.6972783]}},{"type":"Feature","properties":{"name":"Unnamed"},"geometry":{"type":"Point","coordinates":[4.9038214,51.1998988]}},{"type":"Feature","properties":{"name":"Unnamed"},"geometry":{"type":"Point","coordinates":[4.9104438,51.2007176]}},{"type":"Feature","properties":{"name":"Wervik"},"geometry":{"type":"Point","coordinates":[3.0462815,50.7818155]}},{"type":"Feature","properties":{"name":"Zandbergen"},"geometry":{"type":"Point","coordinates":[3.9573581,50.8069906]}},{"type":"Feature","properties":{"name":"Appelterre"},"geometry":{"type":"Point","coordinates":[3.9729579,50.8134518]}},{"type":"Feature","properties":{"name":"Elisabeth"},"geometry":{"type":"Point","coordinates":[4.3309785,50.863048]}},{"type":"Feature","properties":{"name":"Antwerpen-Centraal"},"geometry":{"type":"Point","coordinates":[4.4211011,51.2159949]}},{"type":"Feature","properties":{"name":"Antwerpen-Zuid"},"geometry":{"type":"Point","coordinates":[4.3909634,51.1975124]}},{"type":"Feature","properties":{"name":"Menen"},"geometry":{"type":"Point","coordinates":[3.1137895,50.7993956]}},{"type":"Feature","properties":{"name":"Hoeilaart"},"geometry":{"type":"Point","coordinates":[4.4674393,50.76016]}},{"type":"Feature","properties":{"name":"Iddergem"},"geometry":{"type":"Point","coordinates":[4.0686554,50.8770138]}},{"type":"Feature","properties":{"name":"Olloy-sur-Viroin"},"geometry":{"type":"Point","coordinates":[4.6027138,50.0731331]}},{"type":"Feature","properties":{"name":"Vierves"},"geometry":{"type":"Point","coordinates":[4.6349799,50.0780348]}},{"type":"Feature","properties":{"name":"Treignes"},"geometry":{"type":"Point","coordinates":[4.68252,50.0905348]}},{"type":"Feature","properties":{"name":"Maldegem"},"geometry":{"type":"Point","coordinates":[3.446535,51.2048382]}},{"type":"Feature","properties":{"name":"Mariembourg (CFV3V)"},"geometry":{"type":"Point","coordinates":[4.5305752,50.0926325]}},{"type":"Feature","properties":{"name":"Dorinne-Durnal"},"geometry":{"type":"Point","coordinates":[4.9778972,50.326162]}},{"type":"Feature","properties":{"name":"Purnode"},"geometry":{"type":"Point","coordinates":[4.9415304,50.3234078]}},{"type":"Feature","properties":{"name":"Froyennes"},"geometry":{"type":"Point","coordinates":[3.3571415,50.6287177]}},{"type":"Feature","properties":{"name":"La Louvière-Centre"},"geometry":{"type":"Point","coordinates":[4.1805526,50.4781955]}},{"type":"Feature","properties":{"name":"Lokeren"},"geometry":{"type":"Point","coordinates":[3.9862766,51.1076068]}},{"type":"Feature","properties":{"name":"Lede"},"geometry":{"type":"Point","coordinates":[3.985869,50.9705704]}},{"type":"Feature","properties":{"name":"Ninove"},"geometry":{"type":"Point","coordinates":[4.0261778,50.8394627]}},{"type":"Feature","properties":{"name":"Eupen"},"geometry":{"type":"Point","coordinates":[6.0389191,50.6351119]}},{"type":"Feature","properties":{"name":"Harchies"},"geometry":{"type":"Point","coordinates":[3.6990271,50.4822884]}},{"type":"Feature","properties":{"name":"De Panne"},"geometry":{"type":"Point","coordinates":[2.6021658,51.07727]}},{"type":"Feature","properties":{"name":"Kortemark"},"geometry":{"type":"Point","coordinates":[3.0440745,51.0251661]}},{"type":"Feature","properties":{"name":"Haacht"},"geometry":{"type":"Point","coordinates":[4.6135917,50.966177]}},{"type":"Feature","properties":{"name":"Lustin"},"geometry":{"type":"Point","coordinates":[4.8769257,50.3688538]}},{"type":"Feature","properties":{"name":"Bissegem"},"geometry":{"type":"Point","coordinates":[3.2252204,50.8261729]}},{"type":"Feature","properties":{"name":"Poperinge"},"geometry":{"type":"Point","coordinates":[2.7368606,50.8543508]}},{"type":"Feature","properties":{"name":"Aalst"},"geometry":{"type":"Point","coordinates":[4.0394454,50.9430271]}},{"type":"Feature","properties":{"name":"Wespelaar-Tildonk"},"geometry":{"type":"Point","coordinates":[4.6387127,50.9580659]}},{"type":"Feature","properties":{"name":"De Pinte"},"geometry":{"type":"Point","coordinates":[3.6495233,50.9966415]}},{"type":"Feature","properties":{"name":"Ingelmunster"},"geometry":{"type":"Point","coordinates":[3.2554117,50.9139858]}},{"type":"Feature","properties":{"name":"Wevelgem"},"geometry":{"type":"Point","coordinates":[3.1826776,50.8111783]}},{"type":"Feature","properties":{"name":"Janson"},"geometry":{"type":"Point","coordinates":[4.4519963,50.4133224]}},{"type":"Feature","properties":{"name":"Aalter"},"geometry":{"type":"Point","coordinates":[3.4489698,51.0920383]}},{"type":"Feature","properties":{"name":"Ottignies"},"geometry":{"type":"Point","coordinates":[4.5685648,50.674557]}},{"type":"Feature","properties":{"name":"Dendermonde"},"geometry":{"type":"Point","coordinates":[4.1008679,51.0228312]}},{"type":"Feature","properties":{"name":"Duinbergen"},"geometry":{"type":"Point","coordinates":[3.2635563,51.3383069]}},{"type":"Feature","properties":{"name":"Knokke"},"geometry":{"type":"Point","coordinates":[3.2843217,51.3398274]}},{"type":"Feature","properties":{"name":"Heist"},"geometry":{"type":"Point","coordinates":[3.2391716,51.3338987]}},{"type":"Feature","properties":{"name":"Zeebrugge-Dorp"},"geometry":{"type":"Point","coordinates":[3.1948891,51.326422]}},{"type":"Feature","properties":{"name":"Oostende"},"geometry":{"type":"Point","coordinates":[2.926215,51.2284322]}},{"type":"Feature","properties":{"name":"Spontin"},"geometry":{"type":"Point","coordinates":[5.0099444,50.3229655]}},{"type":"Feature","properties":{"name":"Jemappes"},"geometry":{"type":"Point","coordinates":[3.8859233,50.4526039]}},{"type":"Feature","properties":{"name":"Okegem"},"geometry":{"type":"Point","coordinates":[4.0536641,50.856544]}},{"type":"Feature","properties":{"name":"Gent-Sint-Pieters"},"geometry":{"type":"Point","coordinates":[3.7107158,51.0355237]}},{"type":"Feature","properties":{"name":"Unnamed"},"geometry":{"type":"Point","coordinates":[4.1805314,50.4775758]}},{"type":"Feature","properties":{"name":"Frameries"},"geometry":{"type":"Point","coordinates":[3.9064436,50.4057561]}},{"type":"Feature","properties":{"name":"Unnamed"},"geometry":{"type":"Point","coordinates":[3.6544453,51.0473276]}},{"type":"Feature","properties":{"name":"Kapellen"},"geometry":{"type":"Point","coordinates":[4.4327583,51.3134658]}},{"type":"Feature","properties":{"name":"Schendelbeke"},"geometry":{"type":"Point","coordinates":[3.8997223,50.7979479]}},{"type":"Feature","properties":{"name":"Aarsele"},"geometry":{"type":"Point","coordinates":[3.4185022,50.9845]}},{"type":"Feature","properties":{"name":"Blankenberge"},"geometry":{"type":"Point","coordinates":[3.1339182,51.3123397]}},{"type":"Feature","properties":{"name":"Bilzen"},"geometry":{"type":"Point","coordinates":[5.5095108,50.8684996]}},{"type":"Feature","properties":{"name":"Izegem"},"geometry":{"type":"Point","coordinates":[3.2145318,50.9211098]}},{"type":"Feature","properties":{"name":"Habay"},"geometry":{"type":"Point","coordinates":[5.6327136,49.7181097]}},{"type":"Feature","properties":{"name":"Callenelle"},"geometry":{"type":"Point","coordinates":[3.5205581,50.5302405]}},{"type":"Feature","properties":{"name":"Neerpelt"},"geometry":{"type":"Point","coordinates":[5.4372387,51.2218575]}},{"type":"Feature","properties":{"name":"Simonis"},"geometry":{"type":"Point","coordinates":[4.330489,50.8631917]}},{"type":"Feature","properties":{"name":"Eichem"},"geometry":{"type":"Point","coordinates":[3.9939848,50.8241716]}},{"type":"Feature","properties":{"name":"Idegem"},"geometry":{"type":"Point","coordinates":[3.9203974,50.8013874]}},{"type":"Feature","properties":{"name":"Watermael - Watermaal"},"geometry":{"type":"Point","coordinates":[4.4001989,50.8085128]}},{"type":"Feature","properties":{"name":"La Hulpe"},"geometry":{"type":"Point","coordinates":[4.4971127,50.7383022]}},{"type":"Feature","properties":{"name":"Profondsart"},"geometry":{"type":"Point","coordinates":[4.5455429,50.6995037]}},{"type":"Feature","properties":{"name":"Nismes"},"geometry":{"type":"Point","coordinates":[4.5576227,50.0845804]}},{"type":"Feature","properties":{"name":"Herentals"},"geometry":{"type":"Point","coordinates":[4.8275967,51.1806806]}},{"type":"Feature","properties":{"name":"Tilff"},"geometry":{"type":"Point","coordinates":[5.583679,50.570522]}},{"type":"Feature","properties":{"name":"Visé"},"geometry":{"type":"Point","coordinates":[5.6922541,50.739208]}},{"type":"Feature","properties":{"name":"Alma"},"geometry":{"type":"Point","coordinates":[4.4528546,50.8496906]}},{"type":"Feature","properties":{"name":"Pry"},"geometry":{"type":"Point","coordinates":[4.4290252,50.2692544]}},{"type":"Feature","properties":{"name":"Welkenraedt"},"geometry":{"type":"Point","coordinates":[5.9754899,50.6596575]}},{"type":"Feature","properties":{"name":"Jamioulx"},"geometry":{"type":"Point","coordinates":[4.4114464,50.3528342]}},{"type":"Feature","properties":{"name":"Brugge"},"geometry":{"type":"Point","coordinates":[3.2172409,51.1969806]}},{"type":"Feature","properties":{"name":"Harelbeke"},"geometry":{"type":"Point","coordinates":[3.3145195,50.8562081]}},{"type":"Feature","properties":{"name":"Pepinster"},"geometry":{"type":"Point","coordinates":[5.8063587,50.5681605]}},{"type":"Feature","properties":{"name":"Verviers-Palais"},"geometry":{"type":"Point","coordinates":[5.8642865,50.5908024]}},{"type":"Feature","properties":{"name":"Erbisœul"},"geometry":{"type":"Point","coordinates":[3.8879277,50.5071308]}},{"type":"Feature","properties":{"name":"Braibant"},"geometry":{"type":"Point","coordinates":[5.0676289,50.3169377]}},{"type":"Feature","properties":{"name":"Comines - Komen"},"geometry":{"type":"Point","coordinates":[2.9985049,50.7717486]}},{"type":"Feature","properties":{"name":"Lichtervelde"},"geometry":{"type":"Point","coordinates":[3.1268061,51.0252191]}},{"type":"Feature","properties":{"name":"Roeselare"},"geometry":{"type":"Point","coordinates":[3.1304614,50.9489228]}},{"type":"Feature","properties":{"name":"Waregem"},"geometry":{"type":"Point","coordinates":[3.4243419,50.8917047]}},{"type":"Feature","properties":{"name":"Merelbeke"},"geometry":{"type":"Point","coordinates":[3.7645905,51.0201891]}},{"type":"Feature","properties":{"name":"Aalst-Kerrebroek"},"geometry":{"type":"Point","coordinates":[4.0248473,50.9482577]}},{"type":"Feature","properties":{"name":"Wetteren"},"geometry":{"type":"Point","coordinates":[3.8824487,51.0016172]}},{"type":"Feature","properties":{"name":"Beervelde"},"geometry":{"type":"Point","coordinates":[3.8798459,51.087163]}},{"type":"Feature","properties":{"name":"Balgerhoeke"},"geometry":{"type":"Point","coordinates":[3.5175434,51.2039025]}},{"type":"Feature","properties":{"name":"Baasrode-Noord"},"geometry":{"type":"Point","coordinates":[4.1788083,51.0289212]}},{"type":"Feature","properties":{"name":"Sint-Amands"},"geometry":{"type":"Point","coordinates":[4.2067001,51.0515271]}},{"type":"Feature","properties":{"name":"Oppuurs"},"geometry":{"type":"Point","coordinates":[4.2451806,51.070282]}},{"type":"Feature","properties":{"name":"Puurs (Seinhuiskaai)"},"geometry":{"type":"Point","coordinates":[4.2773363,51.0780191]}},{"type":"Feature","properties":{"name":"Évrehailles"},"geometry":{"type":"Point","coordinates":[4.9308843,50.333978]}},{"type":"Feature","properties":{"name":"Bruxelles-Central - Brussel-Centraal"},"geometry":{"type":"Point","coordinates":[4.3569867,50.8454639]}},{"type":"Feature","properties":{"name":"Forchies"},"geometry":{"type":"Point","coordinates":[4.3245404,50.4331671]}},{"type":"Feature","properties":{"name":"Heist-op-den-Berg"},"geometry":{"type":"Point","coordinates":[4.7093829,51.0735151]}},{"type":"Feature","properties":{"name":"Villette"},"geometry":{"type":"Point","coordinates":[4.4349532,50.4064521]}},{"type":"Feature","properties":{"name":"Heide"},"geometry":{"type":"Point","coordinates":[4.460573,51.3647922]}},{"type":"Feature","properties":{"name":"Palais"},"geometry":{"type":"Point","coordinates":[4.4429532,50.4148326]}},{"type":"Feature","properties":{"name":"Senenne"},"geometry":{"type":"Point","coordinates":[5.0246512,50.3167819]}},{"type":"Feature","properties":{"name":"Gare du train à vapeur"},"geometry":{"type":"Point","coordinates":[3.8849961,50.5851701]}},{"type":"Feature","properties":{"name":"Schaerbeek - Schaarbeek"},"geometry":{"type":"Point","coordinates":[4.3784579,50.878395]}},{"type":"Feature","properties":{"name":"Bruxelles-Luxembourg - Brussel-Luxemburg"},"geometry":{"type":"Point","coordinates":[4.3736537,50.8381995]}},{"type":"Feature","properties":{"name":"Meiser"},"geometry":{"type":"Point","coordinates":[4.3941906,50.8550938]}},{"type":"Feature","properties":{"name":"Linkebeek"},"geometry":{"type":"Point","coordinates":[4.3394231,50.7736831]}},{"type":"Feature","properties":{"name":"Hergenrath"},"geometry":{"type":"Point","coordinates":[6.0432282,50.7090259]}},{"type":"Feature","properties":{"name":"Franchimont"},"geometry":{"type":"Point","coordinates":[5.8224151,50.5255445]}},{"type":"Feature","properties":{"name":"Pepinster-Cité"},"geometry":{"type":"Point","coordinates":[5.8042762,50.5636489]}},{"type":"Feature","properties":{"name":"Spa"},"geometry":{"type":"Point","coordinates":[5.8555278,50.490188]}},{"type":"Feature","properties":{"name":"Spa-Géronstère"},"geometry":{"type":"Point","coordinates":[5.867001,50.4892874]}},{"type":"Feature","properties":{"name":"Dolhain-Gileppe"},"geometry":{"type":"Point","coordinates":[5.9384754,50.6261611]}},{"type":"Feature","properties":{"name":"Trois-Ponts"},"geometry":{"type":"Point","coordinates":[5.8730278,50.3691636]}},{"type":"Feature","properties":{"name":"Parc - Park"},"geometry":{"type":"Point","coordinates":[4.3622545,50.8456068]}},{"type":"Feature","properties":{"name":"Essen"},"geometry":{"type":"Point","coordinates":[4.45117,51.4626799]}},{"type":"Feature","properties":{"name":"Kalmthout"},"geometry":{"type":"Point","coordinates":[4.466644,51.3910924]}},{"type":"Feature","properties":{"name":"Wildert"},"geometry":{"type":"Point","coordinates":[4.4634184,51.4276753]}},{"type":"Feature","properties":{"name":"Sint-Mariaburg"},"geometry":{"type":"Point","coordinates":[4.4351343,51.2907893]}},{"type":"Feature","properties":{"name":"Kijkuit"},"geometry":{"type":"Point","coordinates":[4.4673221,51.3791307]}},{"type":"Feature","properties":{"name":"Ekeren"},"geometry":{"type":"Point","coordinates":[4.434336,51.2817684]}},{"type":"Feature","properties":{"name":"Montgomery"},"geometry":{"type":"Point","coordinates":[4.4075685,50.837836]}},{"type":"Feature","properties":{"name":"Rogier"},"geometry":{"type":"Point","coordinates":[4.3580819,50.8555685]}},{"type":"Feature","properties":{"name":"Thuin"},"geometry":{"type":"Point","coordinates":[4.2884624,50.3425342]}},{"type":"Feature","properties":{"name":"Waterloo"},"geometry":{"type":"Point","coordinates":[4.4506453,50.4172178]}},{"type":"Feature","properties":{"name":"Parc"},"geometry":{"type":"Point","coordinates":[4.4487945,50.409434]}},{"type":"Feature","properties":{"name":"Bloc U"},"geometry":{"type":"Point","coordinates":[4.1018492,50.658168]}},{"type":"Feature","properties":{"name":"Gare du Midi - Zuidstation"},"geometry":{"type":"Point","coordinates":[4.337896,50.8364862]}},{"type":"Feature","properties":{"name":"Porte de Hal - Hallepoort"},"geometry":{"type":"Point","coordinates":[4.3428824,50.8339923]}},{"type":"Feature","properties":{"name":"Pannenhuis"},"geometry":{"type":"Point","coordinates":[4.3429602,50.8735372]}},{"type":"Feature","properties":{"name":"Louvain-la-Neuve"},"geometry":{"type":"Point","coordinates":[4.6163849,50.6699844]}},{"type":"Feature","properties":{"name":"Athus"},"geometry":{"type":"Point","coordinates":[5.8292535,49.5638566]}},{"type":"Feature","properties":{"name":"Boechout"},"geometry":{"type":"Point","coordinates":[4.4951166,51.1632022]}},{"type":"Feature","properties":{"name":"Nijlen"},"geometry":{"type":"Point","coordinates":[4.6665642,51.1597466]}},{"type":"Feature","properties":{"name":"Bouwel"},"geometry":{"type":"Point","coordinates":[4.7462157,51.1656621]}},{"type":"Feature","properties":{"name":"Wolfstee"},"geometry":{"type":"Point","coordinates":[4.7850797,51.1685644]}},{"type":"Feature","properties":{"name":"Liège-Guillemins"},"geometry":{"type":"Point","coordinates":[5.567065,50.624728]}},{"type":"Feature","properties":{"name":"Tienen"},"geometry":{"type":"Point","coordinates":[4.9261879,50.8078688]}},{"type":"Feature","properties":{"name":"Bressoux"},"geometry":{"type":"Point","coordinates":[5.6131398,50.6444511]}},{"type":"Feature","properties":{"name":"Chênée"},"geometry":{"type":"Point","coordinates":[5.6174231,50.6075232]}},{"type":"Feature","properties":{"name":"Angleur"},"geometry":{"type":"Point","coordinates":[5.5986637,50.6131234]}},{"type":"Feature","properties":{"name":"Trooz"},"geometry":{"type":"Point","coordinates":[5.6885307,50.5732348]}},{"type":"Feature","properties":{"name":"Lemonnier"},"geometry":{"type":"Point","coordinates":[4.3409753,50.8402745]}},{"type":"Feature","properties":{"name":"Anneessens"},"geometry":{"type":"Point","coordinates":[4.345455,50.8443013]}},{"type":"Feature","properties":{"name":"Nessonvaux"},"geometry":{"type":"Point","coordinates":[5.7419487,50.5720282]}},{"type":"Feature","properties":{"name":"Fraipont"},"geometry":{"type":"Point","coordinates":[5.7236771,50.5650811]}},{"type":"Feature","properties":{"name":"Lier"},"geometry":{"type":"Point","coordinates":[4.5619531,51.1358421]}},{"type":"Feature","properties":{"name":"Juslenville"},"geometry":{"type":"Point","coordinates":[5.8100648,50.5447202]}},{"type":"Feature","properties":{"name":"Gouvy"},"geometry":{"type":"Point","coordinates":[5.9540191,50.1896189]}},{"type":"Feature","properties":{"name":"Vielsalm"},"geometry":{"type":"Point","coordinates":[5.9095207,50.2787325]}},{"type":"Feature","properties":{"name":"Coo"},"geometry":{"type":"Point","coordinates":[5.8809629,50.3910601]}},{"type":"Feature","properties":{"name":"Melreux-Hotton"},"geometry":{"type":"Point","coordinates":[5.4409722,50.2839828]}},{"type":"Feature","properties":{"name":"Marche-en-Famenne"},"geometry":{"type":"Point","coordinates":[5.3459915,50.2224846]}},{"type":"Feature","properties":{"name":"Marloie"},"geometry":{"type":"Point","coordinates":[5.3139556,50.2025003]}},{"type":"Feature","properties":{"name":"Sy"},"geometry":{"type":"Point","coordinates":[5.5237592,50.4031698]}},{"type":"Feature","properties":{"name":"Bomal"},"geometry":{"type":"Point","coordinates":[5.5195859,50.3768695]}},{"type":"Feature","properties":{"name":"Barvaux"},"geometry":{"type":"Point","coordinates":[5.5014037,50.3490942]}},{"type":"Feature","properties":{"name":"Comblain-la-Tour"},"geometry":{"type":"Point","coordinates":[5.5671182,50.4566595]}},{"type":"Feature","properties":{"name":"Hamoir"},"geometry":{"type":"Point","coordinates":[5.5339242,50.4287902]}},{"type":"Feature","properties":{"name":"Esneux"},"geometry":{"type":"Point","coordinates":[5.5728356,50.530508]}},{"type":"Feature","properties":{"name":"Poulseur"},"geometry":{"type":"Point","coordinates":[5.5787582,50.509234]}},{"type":"Feature","properties":{"name":"Rivage"},"geometry":{"type":"Point","coordinates":[5.585541,50.4860898]}},{"type":"Feature","properties":{"name":"Méry"},"geometry":{"type":"Point","coordinates":[5.5871867,50.5479511]}},{"type":"Feature","properties":{"name":"Hony"},"geometry":{"type":"Point","coordinates":[5.5738197,50.5400857]}},{"type":"Feature","properties":{"name":"Liège-Carré"},"geometry":{"type":"Point","coordinates":[5.5619116,50.6405478]}},{"type":"Feature","properties":{"name":"Liège-Saint-Lambert"},"geometry":{"type":"Point","coordinates":[5.5709122,50.6464988]}},{"type":"Feature","properties":{"name":"Herstal"},"geometry":{"type":"Point","coordinates":[5.6229797,50.6607262]}},{"type":"Feature","properties":{"name":"Milmort"},"geometry":{"type":"Point","coordinates":[5.5996706,50.6932562]}},{"type":"Feature","properties":{"name":"Liers"},"geometry":{"type":"Point","coordinates":[5.5690642,50.6981667]}},{"type":"Feature","properties":{"name":"Glons"},"geometry":{"type":"Point","coordinates":[5.5353685,50.7501905]}},{"type":"Feature","properties":{"name":"Tongeren"},"geometry":{"type":"Point","coordinates":[5.4735866,50.7840282]}},{"type":"Feature","properties":{"name":"Hasselt"},"geometry":{"type":"Point","coordinates":[5.3275497,50.9309341]}},{"type":"Feature","properties":{"name":"Diepenbeek"},"geometry":{"type":"Point","coordinates":[5.4203633,50.910528]}},{"type":"Feature","properties":{"name":"Alken"},"geometry":{"type":"Point","coordinates":[5.2925362,50.8867147]}},{"type":"Feature","properties":{"name":"Sint-Truiden"},"geometry":{"type":"Point","coordinates":[5.1759902,50.8172129]}},{"type":"Feature","properties":{"name":"Landen"},"geometry":{"type":"Point","coordinates":[5.0800985,50.7479715]}},{"type":"Feature","properties":{"name":"Schulen"},"geometry":{"type":"Point","coordinates":[5.1855736,50.9641281]}},{"type":"Feature","properties":{"name":"Langdorp"},"geometry":{"type":"Point","coordinates":[4.8637488,51.0024869]}},{"type":"Feature","properties":{"name":"Testelt"},"geometry":{"type":"Point","coordinates":[4.9469085,51.0097709]}},{"type":"Feature","properties":{"name":"Zichem"},"geometry":{"type":"Point","coordinates":[4.988266,51.0064068]}},{"type":"Feature","properties":{"name":"Diest"},"geometry":{"type":"Point","coordinates":[5.051137,50.9930198]}},{"type":"Feature","properties":{"name":"Wezemaal"},"geometry":{"type":"Point","coordinates":[4.7481188,50.9564078]}},{"type":"Feature","properties":{"name":"Aarschot"},"geometry":{"type":"Point","coordinates":[4.8235445,50.9841977]}},{"type":"Feature","properties":{"name":"Leuven"},"geometry":{"type":"Point","coordinates":[4.7163883,50.8813615]}},{"type":"Feature","properties":{"name":"Kiewit"},"geometry":{"type":"Point","coordinates":[5.3490946,50.954463]}},{"type":"Feature","properties":{"name":"Bokrijk"},"geometry":{"type":"Point","coordinates":[5.4082553,50.9557188]}},{"type":"Feature","properties":{"name":"Genk"},"geometry":{"type":"Point","coordinates":[5.4959701,50.9671297]}},{"type":"Feature","properties":{"name":"Booischot"},"geometry":{"type":"Point","coordinates":[4.7735274,51.0372737]}},{"type":"Feature","properties":{"name":"Begijnendijk"},"geometry":{"type":"Point","coordinates":[4.7992417,51.0226822]}},{"type":"Feature","properties":{"name":"Berlaar"},"geometry":{"type":"Point","coordinates":[4.6388242,51.1134905]}},{"type":"Feature","properties":{"name":"Melkouwen"},"geometry":{"type":"Point","coordinates":[4.671983,51.0947001]}},{"type":"Feature","properties":{"name":"Overpelt"},"geometry":{"type":"Point","coordinates":[5.4243259,51.2156244]}},{"type":"Feature","properties":{"name":"Hamont"},"geometry":{"type":"Point","coordinates":[5.5425301,51.2461291]}},{"type":"Feature","properties":{"name":"Mol"},"geometry":{"type":"Point","coordinates":[5.1145149,51.1905947]}},{"type":"Feature","properties":{"name":"Lommel"},"geometry":{"type":"Point","coordinates":[5.3119934,51.2116272]}},{"type":"Feature","properties":{"name":"Heusden"},"geometry":{"type":"Point","coordinates":[5.2810644,51.038289]}},{"type":"Feature","properties":{"name":"Zolder"},"geometry":{"type":"Point","coordinates":[5.3298068,51.0337039]}},{"type":"Feature","properties":{"name":"Zonhoven"},"geometry":{"type":"Point","coordinates":[5.3488411,50.9902642]}},{"type":"Feature","properties":{"name":"Leopoldsburg"},"geometry":{"type":"Point","coordinates":[5.2580336,51.1173328]}},{"type":"Feature","properties":{"name":"Beverlo"},"geometry":{"type":"Point","coordinates":[5.2344744,51.0886422]}},{"type":"Feature","properties":{"name":"Beringen"},"geometry":{"type":"Point","coordinates":[5.2363211,51.0503819]}},{"type":"Feature","properties":{"name":"Balen"},"geometry":{"type":"Point","coordinates":[5.1652426,51.1690186]}},{"type":"Feature","properties":{"name":"Geel"},"geometry":{"type":"Point","coordinates":[4.9895239,51.1690147]}},{"type":"Feature","properties":{"name":"Olen"},"geometry":{"type":"Point","coordinates":[4.9021179,51.174068]}},{"type":"Feature","properties":{"name":"Kessel"},"geometry":{"type":"Point","coordinates":[4.6179673,51.1508801]}},{"type":"Feature","properties":{"name":"De Brouckère"},"geometry":{"type":"Point","coordinates":[4.353047,50.8514851]}},{"type":"Feature","properties":{"name":"Turnhout"},"geometry":{"type":"Point","coordinates":[4.937964,51.3228669]}},{"type":"Feature","properties":{"name":"Tielen"},"geometry":{"type":"Point","coordinates":[4.8944454,51.2419281]}},{"type":"Feature","properties":{"name":"Pont-de-Seraing"},"geometry":{"type":"Point","coordinates":[5.5095126,50.6196115]}},{"type":"Feature","properties":{"name":"Sclessin"},"geometry":{"type":"Point","coordinates":[5.5552163,50.6108756]}},{"type":"Feature","properties":{"name":"Rixensart"},"geometry":{"type":"Point","coordinates":[4.5313534,50.7130451]}},{"type":"Feature","properties":{"name":"Genval"},"geometry":{"type":"Point","coordinates":[4.5152139,50.7255841]}},{"type":"Feature","properties":{"name":"Groenendaal"},"geometry":{"type":"Point","coordinates":[4.4487682,50.7662542]}},{"type":"Feature","properties":{"name":"Boitsfort - Bosvoorde"},"geometry":{"type":"Point","coordinates":[4.4071502,50.7956766]}},{"type":"Feature","properties":{"name":"Flémalle-Haute"},"geometry":{"type":"Point","coordinates":[5.4564323,50.5944698]}},{"type":"Feature","properties":{"name":"Leman"},"geometry":{"type":"Point","coordinates":[5.4675804,50.5997958]}},{"type":"Feature","properties":{"name":"Jemeppe-sur-Meuse"},"geometry":{"type":"Point","coordinates":[5.4984853,50.6186268]}},{"type":"Feature","properties":{"name":"Flémalle-Grande"},"geometry":{"type":"Point","coordinates":[5.4801246,50.6048537]}},{"type":"Feature","properties":{"name":"Engis"},"geometry":{"type":"Point","coordinates":[5.4027649,50.5828562]}},{"type":"Feature","properties":{"name":"Ampsin"},"geometry":{"type":"Point","coordinates":[5.2896888,50.5392815]}},{"type":"Feature","properties":{"name":"Amay"},"geometry":{"type":"Point","coordinates":[5.3207698,50.5460435]}},{"type":"Feature","properties":{"name":"Haute-Flone"},"geometry":{"type":"Point","coordinates":[5.3310059,50.5540397]}},{"type":"Feature","properties":{"name":"Bas-Oha"},"geometry":{"type":"Point","coordinates":[5.1921875,50.5231736]}},{"type":"Feature","properties":{"name":"Statte"},"geometry":{"type":"Point","coordinates":[5.2209811,50.5278461]}},{"type":"Feature","properties":{"name":"Huy"},"geometry":{"type":"Point","coordinates":[5.2330408,50.5267332]}},{"type":"Feature","properties":{"name":"Château de Seilles"},"geometry":{"type":"Point","coordinates":[5.0823487,50.4972755]}},{"type":"Feature","properties":{"name":"Andenne"},"geometry":{"type":"Point","coordinates":[5.0952747,50.4968073]}},{"type":"Feature","properties":{"name":"Marche-les-Dames"},"geometry":{"type":"Point","coordinates":[4.9654258,50.480672]}},{"type":"Feature","properties":{"name":"Namêche"},"geometry":{"type":"Point","coordinates":[4.9975253,50.4700525]}},{"type":"Feature","properties":{"name":"Sclaigneaux"},"geometry":{"type":"Point","coordinates":[5.0265885,50.4922014]}},{"type":"Feature","properties":{"name":"Namur"},"geometry":{"type":"Point","coordinates":[4.8625285,50.46866]}},{"type":"Feature","properties":{"name":"Bierset-Awans"},"geometry":{"type":"Point","coordinates":[5.4570377,50.6582249]}},{"type":"Feature","properties":{"name":"Ans"},"geometry":{"type":"Point","coordinates":[5.5097759,50.6613584]}},{"type":"Feature","properties":{"name":"Bleret"},"geometry":{"type":"Point","coordinates":[5.2860394,50.685301]}},{"type":"Feature","properties":{"name":"Remicourt"},"geometry":{"type":"Point","coordinates":[5.3207791,50.6787519]}},{"type":"Feature","properties":{"name":"Momalle"},"geometry":{"type":"Point","coordinates":[5.3669032,50.670029]}},{"type":"Feature","properties":{"name":"Fexhe-le-Haut-Clocher"},"geometry":{"type":"Point","coordinates":[5.3981394,50.6641174]}},{"type":"Feature","properties":{"name":"Voroux"},"geometry":{"type":"Point","coordinates":[5.4300397,50.6607906]}},{"type":"Feature","properties":{"name":"Waremme"},"geometry":{"type":"Point","coordinates":[5.2496619,50.6946489]}},{"type":"Feature","properties":{"name":"Ezemaal"},"geometry":{"type":"Point","coordinates":[4.9950215,50.7715802]}},{"type":"Feature","properties":{"name":"Neerwinden"},"geometry":{"type":"Point","coordinates":[5.0363342,50.7637479]}},{"type":"Feature","properties":{"name":"Vertrijk"},"geometry":{"type":"Point","coordinates":[4.8356873,50.8360386]}},{"type":"Feature","properties":{"name":"Veltem"},"geometry":{"type":"Point","coordinates":[4.6332122,50.9004599]}},{"type":"Feature","properties":{"name":"Herent"},"geometry":{"type":"Point","coordinates":[4.6761043,50.9038403]}},{"type":"Feature","properties":{"name":"Nossegem"},"geometry":{"type":"Point","coordinates":[4.5058014,50.8833234]}},{"type":"Feature","properties":{"name":"Kortenberg"},"geometry":{"type":"Point","coordinates":[4.5410778,50.8927499]}},{"type":"Feature","properties":{"name":"Erps-Kwerps"},"geometry":{"type":"Point","coordinates":[4.5865921,50.8966229]}},{"type":"Feature","properties":{"name":"Diegem"},"geometry":{"type":"Point","coordinates":[4.4452656,50.8899584]}},{"type":"Feature","properties":{"name":"Zaventem"},"geometry":{"type":"Point","coordinates":[4.4729619,50.8850055]}},{"type":"Feature","properties":{"name":"Haren-Sud - Haren-Zuid"},"geometry":{"type":"Point","coordinates":[4.4157029,50.8897084]}},{"type":"Feature","properties":{"name":"Wijgmaal"},"geometry":{"type":"Point","coordinates":[4.7016294,50.922623]}},{"type":"Feature","properties":{"name":"Belsele"},"geometry":{"type":"Point","coordinates":[4.0878484,51.1506575]}},{"type":"Feature","properties":{"name":"Boortmeerbeek"},"geometry":{"type":"Point","coordinates":[4.5736867,50.9820186]}},{"type":"Feature","properties":{"name":"Hambos"},"geometry":{"type":"Point","coordinates":[4.6634468,50.9442794]}},{"type":"Feature","properties":{"name":"Muizen"},"geometry":{"type":"Point","coordinates":[4.5134363,51.0087257]}},{"type":"Feature","properties":{"name":"Hever"},"geometry":{"type":"Point","coordinates":[4.5383593,50.9974238]}},{"type":"Feature","properties":{"name":"Neufvilles"},"geometry":{"type":"Point","coordinates":[4.0104248,50.5433547]}},{"type":"Feature","properties":{"name":"Ougrée"},"geometry":{"type":"Point","coordinates":[5.5371047,50.6053692]}},{"type":"Feature","properties":{"name":"Seraing"},"geometry":{"type":"Point","coordinates":[5.5128715,50.6087864]}},{"type":"Feature","properties":{"name":"Baasrode-Zuid"},"geometry":{"type":"Point","coordinates":[4.1540216,51.0193803]}},{"type":"Feature","properties":{"name":"Buggenhout"},"geometry":{"type":"Point","coordinates":[4.2011601,51.0162689]}},{"type":"Feature","properties":{"name":"Malderen"},"geometry":{"type":"Point","coordinates":[4.2286648,51.0144035]}},{"type":"Feature","properties":{"name":"Londerzeel"},"geometry":{"type":"Point","coordinates":[4.2980562,51.0092413]}},{"type":"Feature","properties":{"name":"Kapelle-op-den-Bos"},"geometry":{"type":"Point","coordinates":[4.3590564,51.0108251]}},{"type":"Feature","properties":{"name":"Wichelen"},"geometry":{"type":"Point","coordinates":[3.970305,51.0018607]}},{"type":"Feature","properties":{"name":"Schoonaarde"},"geometry":{"type":"Point","coordinates":[4.0115346,51.0031806]}},{"type":"Feature","properties":{"name":"Oudegem"},"geometry":{"type":"Point","coordinates":[4.0637076,51.0150135]}},{"type":"Feature","properties":{"name":"Sint-Joris-Weert"},"geometry":{"type":"Point","coordinates":[4.6517014,50.8006875]}},{"type":"Feature","properties":{"name":"Oud-Heverlee"},"geometry":{"type":"Point","coordinates":[4.6533041,50.8354611]}},{"type":"Feature","properties":{"name":"Heverlee"},"geometry":{"type":"Point","coordinates":[4.6961236,50.8624363]}},{"type":"Feature","properties":{"name":"Basse-Wavre"},"geometry":{"type":"Point","coordinates":[4.6216561,50.7243301]}},{"type":"Feature","properties":{"name":"Gastuche"},"geometry":{"type":"Point","coordinates":[4.6499388,50.7364678]}},{"type":"Feature","properties":{"name":"Archennes"},"geometry":{"type":"Point","coordinates":[4.6624796,50.7541082]}},{"type":"Feature","properties":{"name":"Florival"},"geometry":{"type":"Point","coordinates":[4.6539941,50.7615685]}},{"type":"Feature","properties":{"name":"Pécrot"},"geometry":{"type":"Point","coordinates":[4.6514648,50.7787181]}},{"type":"Feature","properties":{"name":"Limal"},"geometry":{"type":"Point","coordinates":[4.5756123,50.6916797]}},{"type":"Feature","properties":{"name":"Bierges-Walibi"},"geometry":{"type":"Point","coordinates":[4.5912834,50.7051448]}},{"type":"Feature","properties":{"name":"Wavre"},"geometry":{"type":"Point","coordinates":[4.6050267,50.7160224]}},{"type":"Feature","properties":{"name":"Messancy"},"geometry":{"type":"Point","coordinates":[5.8184601,49.5928992]}},{"type":"Feature","properties":{"name":"Halanzy"},"geometry":{"type":"Point","coordinates":[5.7422875,49.5559453]}},{"type":"Feature","properties":{"name":"Aubange"},"geometry":{"type":"Point","coordinates":[5.7997709,49.563392]}},{"type":"Feature","properties":{"name":"Virton"},"geometry":{"type":"Point","coordinates":[5.5196466,49.5605149]}},{"type":"Feature","properties":{"name":"Florenville"},"geometry":{"type":"Point","coordinates":[5.3323133,49.7069091]}},{"type":"Feature","properties":{"name":"Bertrix"},"geometry":{"type":"Point","coordinates":[5.267806,49.8526996]}},{"type":"Feature","properties":{"name":"Libramont"},"geometry":{"type":"Point","coordinates":[5.3793078,49.9202368]}},{"type":"Feature","properties":{"name":"Paliseul"},"geometry":{"type":"Point","coordinates":[5.1187309,49.8952062]}},{"type":"Feature","properties":{"name":"Gedinne"},"geometry":{"type":"Point","coordinates":[4.9782107,49.9842836]}},{"type":"Feature","properties":{"name":"Graide"},"geometry":{"type":"Point","coordinates":[5.0433101,49.9338624]}},{"type":"Feature","properties":{"name":"Carlsbourg"},"geometry":{"type":"Point","coordinates":[5.0873516,49.9073932]}},{"type":"Feature","properties":{"name":"Beauraing"},"geometry":{"type":"Point","coordinates":[4.9567776,50.1148164]}},{"type":"Feature","properties":{"name":"Houyet"},"geometry":{"type":"Point","coordinates":[5.0060602,50.1901302]}},{"type":"Feature","properties":{"name":"Braine-le-Comte"},"geometry":{"type":"Point","coordinates":[4.1387528,50.605491]}},{"type":"Feature","properties":{"name":"Anseremme"},"geometry":{"type":"Point","coordinates":[4.9047258,50.2373562]}},{"type":"Feature","properties":{"name":"Gendron-Celles"},"geometry":{"type":"Point","coordinates":[4.9646491,50.2104997]}},{"type":"Feature","properties":{"name":"Arlon"},"geometry":{"type":"Point","coordinates":[5.8095313,49.680415]}},{"type":"Feature","properties":{"name":"Stockem"},"geometry":{"type":"Point","coordinates":[5.7678044,49.6909199]}},{"type":"Feature","properties":{"name":"Viville"},"geometry":{"type":"Point","coordinates":[5.7858747,49.6882056]}},{"type":"Feature","properties":{"name":"Chaudfontaine"},"geometry":{"type":"Point","coordinates":[5.643474,50.5869966]}},{"type":"Feature","properties":{"name":"Marbehan"},"geometry":{"type":"Point","coordinates":[5.5393884,49.7274187]}},{"type":"Feature","properties":{"name":"Neufchâteau"},"geometry":{"type":"Point","coordinates":[5.4525893,49.8541594]}},{"type":"Feature","properties":{"name":"Poix-Saint-Hubert"},"geometry":{"type":"Point","coordinates":[5.2926645,50.0194244]}},{"type":"Feature","properties":{"name":"Forrières"},"geometry":{"type":"Point","coordinates":[5.2766908,50.1324018]}},{"type":"Feature","properties":{"name":"Grupont"},"geometry":{"type":"Point","coordinates":[5.2807569,50.0907661]}},{"type":"Feature","properties":{"name":"Rochefort-Jemelle"},"geometry":{"type":"Point","coordinates":[5.2671586,50.1599751]}},{"type":"Feature","properties":{"name":"Haversin"},"geometry":{"type":"Point","coordinates":[5.1944131,50.2490522]}},{"type":"Feature","properties":{"name":"Aye"},"geometry":{"type":"Point","coordinates":[5.3009737,50.2244872]}},{"type":"Feature","properties":{"name":"Ciney"},"geometry":{"type":"Point","coordinates":[5.091454,50.2913832]}},{"type":"Feature","properties":{"name":"Leignon"},"geometry":{"type":"Point","coordinates":[5.1076433,50.2677045]}},{"type":"Feature","properties":{"name":"Chapois"},"geometry":{"type":"Point","coordinates":[5.1250099,50.2618245]}},{"type":"Feature","properties":{"name":"Assesse"},"geometry":{"type":"Point","coordinates":[5.0225506,50.368225]}},{"type":"Feature","properties":{"name":"Natoye"},"geometry":{"type":"Point","coordinates":[5.061339,50.3431142]}},{"type":"Feature","properties":{"name":"Dave-Saint-Martin"},"geometry":{"type":"Point","coordinates":[4.8843777,50.428925]}},{"type":"Feature","properties":{"name":"Naninne"},"geometry":{"type":"Point","coordinates":[4.9299294,50.4195668]}},{"type":"Feature","properties":{"name":"Sart-Bernard"},"geometry":{"type":"Point","coordinates":[4.9492425,50.406494]}},{"type":"Feature","properties":{"name":"Courrière"},"geometry":{"type":"Point","coordinates":[4.9951102,50.3890438]}},{"type":"Feature","properties":{"name":"Jambes-Est"},"geometry":{"type":"Point","coordinates":[4.8803088,50.4549286]}},{"type":"Feature","properties":{"name":"Lonzée"},"geometry":{"type":"Point","coordinates":[4.7203892,50.5518024]}},{"type":"Feature","properties":{"name":"Beuzet"},"geometry":{"type":"Point","coordinates":[4.7485795,50.5339856]}},{"type":"Feature","properties":{"name":"Saint-Denis Bovesse"},"geometry":{"type":"Point","coordinates":[4.7680257,50.5213237]}},{"type":"Feature","properties":{"name":"Rhisnes"},"geometry":{"type":"Point","coordinates":[4.8018463,50.4992506]}},{"type":"Feature","properties":{"name":"Mont-Saint-Guibert"},"geometry":{"type":"Point","coordinates":[4.6129102,50.6381657]}},{"type":"Feature","properties":{"name":"Blanmont"},"geometry":{"type":"Point","coordinates":[4.635915,50.620223]}},{"type":"Feature","properties":{"name":"Chastre"},"geometry":{"type":"Point","coordinates":[4.6497658,50.6078748]}},{"type":"Feature","properties":{"name":"Ernage"},"geometry":{"type":"Point","coordinates":[4.6676199,50.5919743]}},{"type":"Feature","properties":{"name":"Etterbeek"},"geometry":{"type":"Point","coordinates":[4.3895883,50.8221263]}},{"type":"Feature","properties":{"name":"Bruxelles-Schuman - Brussel-Schuman"},"geometry":{"type":"Point","coordinates":[4.3806152,50.8428667]}},{"type":"Feature","properties":{"name":"Germoir - Mouterij"},"geometry":{"type":"Point","coordinates":[4.3795264,50.8302302]}},{"type":"Feature","properties":{"name":"Lustin"},"geometry":{"type":"Point","coordinates":[4.8770394,50.3690369]}},{"type":"Feature","properties":{"name":"Godinne"},"geometry":{"type":"Point","coordinates":[4.8690492,50.3487547]}},{"type":"Feature","properties":{"name":"Yvoir"},"geometry":{"type":"Point","coordinates":[4.8785998,50.3206651]}},{"type":"Feature","properties":{"name":"Dinant"},"geometry":{"type":"Point","coordinates":[4.907942,50.2612142]}},{"type":"Feature","properties":{"name":"Jambes"},"geometry":{"type":"Point","coordinates":[4.8759112,50.4545703]}},{"type":"Feature","properties":{"name":"Jemeppe-sur-Sambre"},"geometry":{"type":"Point","coordinates":[4.66326,50.4513164]}},{"type":"Feature","properties":{"name":"Mazy"},"geometry":{"type":"Point","coordinates":[4.6755791,50.5130443]}},{"type":"Feature","properties":{"name":"Chapelle-Dieu"},"geometry":{"type":"Point","coordinates":[4.6986287,50.5578882]}},{"type":"Feature","properties":{"name":"Auvelais"},"geometry":{"type":"Point","coordinates":[4.6310995,50.4491785]}},{"type":"Feature","properties":{"name":"Fleurus"},"geometry":{"type":"Point","coordinates":[4.5439909,50.4822918]}},{"type":"Feature","properties":{"name":"La Roche"},"geometry":{"type":"Point","coordinates":[4.5397458,50.6105423]}},{"type":"Feature","properties":{"name":"Faux"},"geometry":{"type":"Point","coordinates":[4.5486358,50.621204]}},{"type":"Feature","properties":{"name":"Court-Saint-Étienne"},"geometry":{"type":"Point","coordinates":[4.5657657,50.6463699]}},{"type":"Feature","properties":{"name":"Céroux-Mousty"},"geometry":{"type":"Point","coordinates":[4.5691032,50.6599083]}},{"type":"Feature","properties":{"name":"Ligny"},"geometry":{"type":"Point","coordinates":[4.566014,50.5119782]}},{"type":"Feature","properties":{"name":"Tilly"},"geometry":{"type":"Point","coordinates":[4.5523236,50.557665]}},{"type":"Feature","properties":{"name":"Villers-la-Ville"},"geometry":{"type":"Point","coordinates":[4.5338539,50.5779363]}},{"type":"Feature","properties":{"name":"Charleroi-Ouest"},"geometry":{"type":"Point","coordinates":[4.4368414,50.4112062]}},{"type":"Feature","properties":{"name":"Lodelinsart"},"geometry":{"type":"Point","coordinates":[4.464702,50.433116]}},{"type":"Feature","properties":{"name":"Manage"},"geometry":{"type":"Point","coordinates":[4.2347126,50.5061936]}},{"type":"Feature","properties":{"name":"Châtelet"},"geometry":{"type":"Point","coordinates":[4.5209408,50.4094033]}},{"type":"Feature","properties":{"name":"Mariembourg"},"geometry":{"type":"Point","coordinates":[4.5252026,50.095475]}},{"type":"Feature","properties":{"name":"Couvin"},"geometry":{"type":"Point","coordinates":[4.4924475,50.0570649]}},{"type":"Feature","properties":{"name":"Yves-Gomezée"},"geometry":{"type":"Point","coordinates":[4.5005925,50.2369772]}},{"type":"Feature","properties":{"name":"Philippeville"},"geometry":{"type":"Point","coordinates":[4.5357179,50.1911275]}},{"type":"Feature","properties":{"name":"Berzée"},"geometry":{"type":"Point","coordinates":[4.4060783,50.2855349]}},{"type":"Feature","properties":{"name":"Walcourt"},"geometry":{"type":"Point","coordinates":[4.4360888,50.2594771]}},{"type":"Feature","properties":{"name":"Beignée"},"geometry":{"type":"Point","coordinates":[4.4065703,50.3334037]}},{"type":"Feature","properties":{"name":"Ham-sur-Heure"},"geometry":{"type":"Point","coordinates":[4.404911,50.320059]}},{"type":"Feature","properties":{"name":"Cour-sur-Heure"},"geometry":{"type":"Point","coordinates":[4.391613,50.3002142]}},{"type":"Feature","properties":{"name":"Flawinne"},"geometry":{"type":"Point","coordinates":[4.806254,50.4562813]}},{"type":"Feature","properties":{"name":"Ronet"},"geometry":{"type":"Point","coordinates":[4.8292922,50.458172]}},{"type":"Feature","properties":{"name":"Moustier"},"geometry":{"type":"Point","coordinates":[4.6943936,50.4528167]}},{"type":"Feature","properties":{"name":"Franière"},"geometry":{"type":"Point","coordinates":[4.7335247,50.439662]}},{"type":"Feature","properties":{"name":"Floreffe"},"geometry":{"type":"Point","coordinates":[4.7622321,50.4431734]}},{"type":"Feature","properties":{"name":"Le Campinaire"},"geometry":{"type":"Point","coordinates":[4.5431414,50.4239469]}},{"type":"Feature","properties":{"name":"Farciennes"},"geometry":{"type":"Point","coordinates":[4.5526781,50.4291944]}},{"type":"Feature","properties":{"name":"Aiseau"},"geometry":{"type":"Point","coordinates":[4.584725,50.4295082]}},{"type":"Feature","properties":{"name":"Tamines"},"geometry":{"type":"Point","coordinates":[4.609746,50.4323133]}},{"type":"Feature","properties":{"name":"Couillet"},"geometry":{"type":"Point","coordinates":[4.4688818,50.3927187]}},{"type":"Feature","properties":{"name":"Charleroi-Central"},"geometry":{"type":"Point","coordinates":[4.438781,50.4047346]}},{"type":"Feature","properties":{"name":"Landelies"},"geometry":{"type":"Point","coordinates":[4.3506085,50.3773516]}},{"type":"Feature","properties":{"name":"Marchienne-Zone"},"geometry":{"type":"Point","coordinates":[4.3904314,50.3978164]}},{"type":"Feature","properties":{"name":"Lobbes"},"geometry":{"type":"Point","coordinates":[4.2616182,50.3461731]}},{"type":"Feature","properties":{"name":"Hourpes"},"geometry":{"type":"Point","coordinates":[4.3085386,50.3649127]}},{"type":"Feature","properties":{"name":"Erquelinnes"},"geometry":{"type":"Point","coordinates":[4.1124146,50.3036552]}},{"type":"Feature","properties":{"name":"Erquelinnes-Village"},"geometry":{"type":"Point","coordinates":[4.1309044,50.309979]}},{"type":"Feature","properties":{"name":"Solre-sur-Sambre"},"geometry":{"type":"Point","coordinates":[4.1581256,50.3127567]}},{"type":"Feature","properties":{"name":"Labuissière"},"geometry":{"type":"Point","coordinates":[4.1862757,50.3162604]}},{"type":"Feature","properties":{"name":"Fontaine-Valmont"},"geometry":{"type":"Point","coordinates":[4.2129318,50.3212048]}},{"type":"Feature","properties":{"name":"Marchienne-au-Pont"},"geometry":{"type":"Point","coordinates":[4.3941506,50.412317]}},{"type":"Feature","properties":{"name":"Roux"},"geometry":{"type":"Point","coordinates":[4.3937321,50.4429929]}},{"type":"Feature","properties":{"name":"Zegel"},"geometry":{"type":"Point","coordinates":[4.4427241,51.2144105]}},{"type":"Feature","properties":{"name":"Astrid"},"geometry":{"type":"Point","coordinates":[4.4213093,51.2190222]}},{"type":"Feature","properties":{"name":"Luttre"},"geometry":{"type":"Point","coordinates":[4.3839192,50.5062363]}},{"type":"Feature","properties":{"name":"Courcelles-Motte"},"geometry":{"type":"Point","coordinates":[4.4006221,50.4626662]}},{"type":"Feature","properties":{"name":"Obaix-Buzet"},"geometry":{"type":"Point","coordinates":[4.3636443,50.5356081]}},{"type":"Feature","properties":{"name":"Lillois"},"geometry":{"type":"Point","coordinates":[4.3651134,50.6450145]}},{"type":"Feature","properties":{"name":"Waterloo"},"geometry":{"type":"Point","coordinates":[4.3835928,50.7160338]}},{"type":"Feature","properties":{"name":"Braine-l'Alleud"},"geometry":{"type":"Point","coordinates":[4.3758099,50.6841288]}},{"type":"Feature","properties":{"name":"Holleken"},"geometry":{"type":"Point","coordinates":[4.3543663,50.7673077]}},{"type":"Feature","properties":{"name":"Sint-Genesius-Rode - Rhode-Saint-Genèse"},"geometry":{"type":"Point","coordinates":[4.3619738,50.7479462]}},{"type":"Feature","properties":{"name":"De Hoek"},"geometry":{"type":"Point","coordinates":[4.3707012,50.738887]}},{"type":"Feature","properties":{"name":"Uccle-Stalle - Ukkel-Stalle"},"geometry":{"type":"Point","coordinates":[4.3238713,50.8023303]}},{"type":"Feature","properties":{"name":"Uccle-Calevoet - Ukkel-Kalevoet"},"geometry":{"type":"Point","coordinates":[4.3320174,50.7918294]}},{"type":"Feature","properties":{"name":"Forest-Est - Vorst-Oost"},"geometry":{"type":"Point","coordinates":[4.3207625,50.8096334]}},{"type":"Feature","properties":{"name":"Diamant"},"geometry":{"type":"Point","coordinates":[4.4023271,50.8491586]}},{"type":"Feature","properties":{"name":"Bourse - Beurs"},"geometry":{"type":"Point","coordinates":[4.3491201,50.8478282]}},{"type":"Feature","properties":{"name":"Leval"},"geometry":{"type":"Point","coordinates":[4.2102906,50.4296227]}},{"type":"Feature","properties":{"name":"Binche"},"geometry":{"type":"Point","coordinates":[4.1732171,50.4088867]}},{"type":"Feature","properties":{"name":"Piéton"},"geometry":{"type":"Point","coordinates":[4.2889391,50.4349107]}},{"type":"Feature","properties":{"name":"La Louvière-Sud"},"geometry":{"type":"Point","coordinates":[4.1884884,50.4653559]}},{"type":"Feature","properties":{"name":"Morlanwelz"},"geometry":{"type":"Point","coordinates":[4.2470189,50.4585416]}},{"type":"Feature","properties":{"name":"Carnières"},"geometry":{"type":"Point","coordinates":[4.2641569,50.4479334]}},{"type":"Feature","properties":{"name":"Godarville"},"geometry":{"type":"Point","coordinates":[4.2902614,50.4929433]}},{"type":"Feature","properties":{"name":"Gouy-Lez-Piéton"},"geometry":{"type":"Point","coordinates":[4.3253593,50.4967574]}},{"type":"Feature","properties":{"name":"Pont-à-Celles"},"geometry":{"type":"Point","coordinates":[4.361918,50.5129074]}},{"type":"Feature","properties":{"name":"Marche-lez-Écaussinnes"},"geometry":{"type":"Point","coordinates":[4.1767091,50.5464944]}},{"type":"Feature","properties":{"name":"Familleureux"},"geometry":{"type":"Point","coordinates":[4.2111648,50.5196687]}},{"type":"Feature","properties":{"name":"Écaussinnes"},"geometry":{"type":"Point","coordinates":[4.1569074,50.5621578]}},{"type":"Feature","properties":{"name":"Obourg"},"geometry":{"type":"Point","coordinates":[4.0069551,50.4698332]}},{"type":"Feature","properties":{"name":"Havré"},"geometry":{"type":"Point","coordinates":[4.0602175,50.4705829]}},{"type":"Feature","properties":{"name":"Thieu"},"geometry":{"type":"Point","coordinates":[4.0978069,50.4695795]}},{"type":"Feature","properties":{"name":"Bracquegnies"},"geometry":{"type":"Point","coordinates":[4.1249838,50.4741426]}},{"type":"Feature","properties":{"name":"Mons"},"geometry":{"type":"Point","coordinates":[3.9419654,50.4540439]}},{"type":"Feature","properties":{"name":"Nimy"},"geometry":{"type":"Point","coordinates":[3.9561487,50.4716513]}},{"type":"Feature","properties":{"name":"Quiévrain"},"geometry":{"type":"Point","coordinates":[3.6866771,50.4102228]}},{"type":"Feature","properties":{"name":"Quaregnon"},"geometry":{"type":"Point","coordinates":[3.8558507,50.449794]}},{"type":"Feature","properties":{"name":"Saint-Ghislain"},"geometry":{"type":"Point","coordinates":[3.8189675,50.4425346]}},{"type":"Feature","properties":{"name":"Genly"},"geometry":{"type":"Point","coordinates":[3.911096,50.3915401]}},{"type":"Feature","properties":{"name":"Quévy"},"geometry":{"type":"Point","coordinates":[3.9092414,50.3413891]}},{"type":"Feature","properties":{"name":"Albert"},"geometry":{"type":"Point","coordinates":[4.3425655,50.8215407]}},{"type":"Feature","properties":{"name":"Porte de Hal - Hallepoort"},"geometry":{"type":"Point","coordinates":[4.3428865,50.8327988]}},{"type":"Feature","properties":{"name":"Parvis de Saint-Gilles - Sint-Gillisvoorplein"},"geometry":{"type":"Point","coordinates":[4.3461376,50.8298326]}},{"type":"Feature","properties":{"name":"Maubray"},"geometry":{"type":"Point","coordinates":[3.4954357,50.5476751]}},{"type":"Feature","properties":{"name":"Horta"},"geometry":{"type":"Point","coordinates":[4.3457493,50.8259485]}},{"type":"Feature","properties":{"name":"Boileau"},"geometry":{"type":"Point","coordinates":[4.4053128,50.8332284]}},{"type":"Feature","properties":{"name":"Georges Henri"},"geometry":{"type":"Point","coordinates":[4.4054308,50.843774]}},{"type":"Feature","properties":{"name":"Tournai"},"geometry":{"type":"Point","coordinates":[3.3971195,50.6129289]}},{"type":"Feature","properties":{"name":"Ghlin"},"geometry":{"type":"Point","coordinates":[3.906371,50.4875117]}},{"type":"Feature","properties":{"name":"Lembeek"},"geometry":{"type":"Point","coordinates":[4.2206382,50.7142009]}},{"type":"Feature","properties":{"name":"Lessines"},"geometry":{"type":"Point","coordinates":[3.836873,50.7130521]}},{"type":"Feature","properties":{"name":"Hennuyères"},"geometry":{"type":"Point","coordinates":[4.176451,50.6512775]}},{"type":"Feature","properties":{"name":"Lot"},"geometry":{"type":"Point","coordinates":[4.2733784,50.7659519]}},{"type":"Feature","properties":{"name":"Masnuy-Saint-Pierre"},"geometry":{"type":"Point","coordinates":[3.9617481,50.5363598]}},{"type":"Feature","properties":{"name":"Tubize"},"geometry":{"type":"Point","coordinates":[4.2056101,50.6917872]}},{"type":"Feature","properties":{"name":"Forest-Midi - Vorst-Zuid"},"geometry":{"type":"Point","coordinates":[4.3083756,50.8078159]}},{"type":"Feature","properties":{"name":"Beernem"},"geometry":{"type":"Point","coordinates":[3.3294877,51.1281383]}},{"type":"Feature","properties":{"name":"Jurbise"},"geometry":{"type":"Point","coordinates":[3.90951,50.5298835]}},{"type":"Feature","properties":{"name":"Buizingen"},"geometry":{"type":"Point","coordinates":[4.258435,50.7513636]}},{"type":"Feature","properties":{"name":"Ruisbroek"},"geometry":{"type":"Point","coordinates":[4.2949713,50.7910623]}},{"type":"Feature","properties":{"name":"Drongen"},"geometry":{"type":"Point","coordinates":[3.6544322,51.0473433]}},{"type":"Feature","properties":{"name":"Hansbeke"},"geometry":{"type":"Point","coordinates":[3.5359264,51.0731867]}},{"type":"Feature","properties":{"name":"Bellem"},"geometry":{"type":"Point","coordinates":[3.4887657,51.0834224]}},{"type":"Feature","properties":{"name":"Landegem"},"geometry":{"type":"Point","coordinates":[3.5754792,51.0645747]}},{"type":"Feature","properties":{"name":"Maria-Aalter"},"geometry":{"type":"Point","coordinates":[3.3851815,51.1081407]}},{"type":"Feature","properties":{"name":"Oostkamp"},"geometry":{"type":"Point","coordinates":[3.2573187,51.154378]}},{"type":"Feature","properties":{"name":"Soignies"},"geometry":{"type":"Point","coordinates":[4.0692023,50.5732378]}},{"type":"Feature","properties":{"name":"Halle"},"geometry":{"type":"Point","coordinates":[4.2404904,50.7337393]}},{"type":"Feature","properties":{"name":"Silly"},"geometry":{"type":"Point","coordinates":[3.9362366,50.6628016]}},{"type":"Feature","properties":{"name":"Ath"},"geometry":{"type":"Point","coordinates":[3.7772739,50.6269922]}},{"type":"Feature","properties":{"name":"Leuze"},"geometry":{"type":"Point","coordinates":[3.6166291,50.6005266]}},{"type":"Feature","properties":{"name":"Ville-Pommerœul"},"geometry":{"type":"Point","coordinates":[3.7236663,50.4649272]}},{"type":"Feature","properties":{"name":"Blaton"},"geometry":{"type":"Point","coordinates":[3.6662236,50.505315]}},{"type":"Feature","properties":{"name":"Antoing"},"geometry":{"type":"Point","coordinates":[3.4514502,50.5696047]}},{"type":"Feature","properties":{"name":"Brugelette"},"geometry":{"type":"Point","coordinates":[3.8523292,50.5941625]}},{"type":"Feature","properties":{"name":"Cambron-Casteau"},"geometry":{"type":"Point","coordinates":[3.8748613,50.5865143]}},{"type":"Feature","properties":{"name":"Lens"},"geometry":{"type":"Point","coordinates":[3.9033334,50.5590928]}},{"type":"Feature","properties":{"name":"Maffle"},"geometry":{"type":"Point","coordinates":[3.7993582,50.6148539]}},{"type":"Feature","properties":{"name":"Mévergnies-Attre"},"geometry":{"type":"Point","coordinates":[3.8342747,50.5998749]}},{"type":"Feature","properties":{"name":"Houraing"},"geometry":{"type":"Point","coordinates":[3.8351774,50.7028095]}},{"type":"Feature","properties":{"name":"Papignies"},"geometry":{"type":"Point","coordinates":[3.82329,50.6864197]}},{"type":"Feature","properties":{"name":"Rebaix"},"geometry":{"type":"Point","coordinates":[3.7938831,50.6615684]}},{"type":"Feature","properties":{"name":"Acren"},"geometry":{"type":"Point","coordinates":[3.8470584,50.7329916]}},{"type":"Feature","properties":{"name":"Geraardsbergen"},"geometry":{"type":"Point","coordinates":[3.872015,50.7704097]}},{"type":"Feature","properties":{"name":"Viane-Moerbeke"},"geometry":{"type":"Point","coordinates":[3.9168241,50.7519469]}},{"type":"Feature","properties":{"name":"Galmaarden"},"geometry":{"type":"Point","coordinates":[3.9665491,50.7435765]}},{"type":"Feature","properties":{"name":"Tollembeek"},"geometry":{"type":"Point","coordinates":[3.9925498,50.735543]}},{"type":"Feature","properties":{"name":"Herne"},"geometry":{"type":"Point","coordinates":[4.0136814,50.724262]}},{"type":"Feature","properties":{"name":"Zottegem"},"geometry":{"type":"Point","coordinates":[3.8145586,50.8688488]}},{"type":"Feature","properties":{"name":"Lierde"},"geometry":{"type":"Point","coordinates":[3.8269144,50.8159608]}},{"type":"Feature","properties":{"name":"Balegem-Zuid"},"geometry":{"type":"Point","coordinates":[3.806252,50.8999263]}},{"type":"Feature","properties":{"name":"Moortsele"},"geometry":{"type":"Point","coordinates":[3.7811811,50.9533129]}},{"type":"Feature","properties":{"name":"Scheldewindeke"},"geometry":{"type":"Point","coordinates":[3.7779754,50.9368736]}},{"type":"Feature","properties":{"name":"Balegem-Dorp"},"geometry":{"type":"Point","coordinates":[3.7915187,50.9194554]}},{"type":"Feature","properties":{"name":"Gontrode"},"geometry":{"type":"Point","coordinates":[3.8014558,50.9797505]}},{"type":"Feature","properties":{"name":"Landskouter"},"geometry":{"type":"Point","coordinates":[3.7914922,50.9708171]}},{"type":"Feature","properties":{"name":"Noorderkempen"},"geometry":{"type":"Point","coordinates":[4.6329988,51.357137]}},{"type":"Feature","properties":{"name":"Antwerpen-Noorderdokken"},"geometry":{"type":"Point","coordinates":[4.42776,51.2613595]}},{"type":"Feature","properties":{"name":"Antwerpen-Luchtbal"},"geometry":{"type":"Point","coordinates":[4.4248963,51.2443659]}},{"type":"Feature","properties":{"name":"Anzegem"},"geometry":{"type":"Point","coordinates":[3.4948694,50.8262866]}},{"type":"Feature","properties":{"name":"Vichte"},"geometry":{"type":"Point","coordinates":[3.3919119,50.833545]}},{"type":"Feature","properties":{"name":"Munkzwalm"},"geometry":{"type":"Point","coordinates":[3.7329879,50.8755481]}},{"type":"Feature","properties":{"name":"Sint-Denijs-Boekel"},"geometry":{"type":"Point","coordinates":[3.6984967,50.8742259]}},{"type":"Feature","properties":{"name":"Burst"},"geometry":{"type":"Point","coordinates":[3.9209307,50.9069316]}},{"type":"Feature","properties":{"name":"Terhagen"},"geometry":{"type":"Point","coordinates":[3.8964316,50.9015147]}},{"type":"Feature","properties":{"name":"Herzele"},"geometry":{"type":"Point","coordinates":[3.8803182,50.8971467]}},{"type":"Feature","properties":{"name":"Hillegem"},"geometry":{"type":"Point","coordinates":[3.8582269,50.8915064]}},{"type":"Feature","properties":{"name":"Welle"},"geometry":{"type":"Point","coordinates":[4.0518975,50.9027587]}},{"type":"Feature","properties":{"name":"Haaltert"},"geometry":{"type":"Point","coordinates":[4.0236273,50.9068436]}},{"type":"Feature","properties":{"name":"Ede"},"geometry":{"type":"Point","coordinates":[3.9869718,50.910973]}},{"type":"Feature","properties":{"name":"Ronse - Renaix"},"geometry":{"type":"Point","coordinates":[3.6017789,50.7422548]}},{"type":"Feature","properties":{"name":"Zingem"},"geometry":{"type":"Point","coordinates":[3.6463103,50.9080352]}},{"type":"Feature","properties":{"name":"Eine"},"geometry":{"type":"Point","coordinates":[3.6237478,50.8704188]}},{"type":"Feature","properties":{"name":"Eke-Nazareth"},"geometry":{"type":"Point","coordinates":[3.6279097,50.9609656]}},{"type":"Feature","properties":{"name":"Gavere-Asper"},"geometry":{"type":"Point","coordinates":[3.6400446,50.9291361]}},{"type":"Feature","properties":{"name":"Vijfhuizen"},"geometry":{"type":"Point","coordinates":[3.9833194,50.9434856]}},{"type":"Feature","properties":{"name":"Erpe-Mere"},"geometry":{"type":"Point","coordinates":[3.9628896,50.9292332]}},{"type":"Feature","properties":{"name":"Bambrugge"},"geometry":{"type":"Point","coordinates":[3.9357237,50.9136395]}},{"type":"Feature","properties":{"name":"Beersel"},"geometry":{"type":"Point","coordinates":[4.3029618,50.7669177]}},{"type":"Feature","properties":{"name":"Huizingen"},"geometry":{"type":"Point","coordinates":[4.2659694,50.751709]}},{"type":"Feature","properties":{"name":"Boondael - Boondaal"},"geometry":{"type":"Point","coordinates":[4.3936882,50.8021082]}},{"type":"Feature","properties":{"name":"Vivier d'Oie - Diesdelle"},"geometry":{"type":"Point","coordinates":[4.3719359,50.7959733]}},{"type":"Feature","properties":{"name":"Saint-Job - Sint-Job"},"geometry":{"type":"Point","coordinates":[4.3614349,50.7939484]}},{"type":"Feature","properties":{"name":"Moensberg"},"geometry":{"type":"Point","coordinates":[4.333667,50.7795524]}},{"type":"Feature","properties":{"name":"Delta"},"geometry":{"type":"Point","coordinates":[4.4040077,50.8187676]}},{"type":"Feature","properties":{"name":"Arcades - Arcaden"},"geometry":{"type":"Point","coordinates":[4.3983205,50.8095579]}},{"type":"Feature","properties":{"name":"Evere"},"geometry":{"type":"Point","coordinates":[4.4008547,50.8676818]}},{"type":"Feature","properties":{"name":"Merode"},"geometry":{"type":"Point","coordinates":[4.4001224,50.8386768]}},{"type":"Feature","properties":{"name":"Haren"},"geometry":{"type":"Point","coordinates":[4.4198135,50.8886636]}},{"type":"Feature","properties":{"name":"Bordet"},"geometry":{"type":"Point","coordinates":[4.4095319,50.8772568]}},{"type":"Feature","properties":{"name":"Eppegem"},"geometry":{"type":"Point","coordinates":[4.4577402,50.9586694]}},{"type":"Feature","properties":{"name":"Vilvoorde"},"geometry":{"type":"Point","coordinates":[4.4327691,50.9245857]}},{"type":"Feature","properties":{"name":"Buda"},"geometry":{"type":"Point","coordinates":[4.4176319,50.9081115]}},{"type":"Feature","properties":{"name":"Weerde"},"geometry":{"type":"Point","coordinates":[4.4714015,50.9777709]}},{"type":"Feature","properties":{"name":"Duffel"},"geometry":{"type":"Point","coordinates":[4.4928744,51.0913781]}},{"type":"Feature","properties":{"name":"Sint-Katelijne-Waver"},"geometry":{"type":"Point","coordinates":[4.4958343,51.0706591]}},{"type":"Feature","properties":{"name":"Mechelen-Nekkerspoel"},"geometry":{"type":"Point","coordinates":[4.4902298,51.0302855]}},{"type":"Feature","properties":{"name":"Mortsel-Oude-God"},"geometry":{"type":"Point","coordinates":[4.4557851,51.1711434]}},{"type":"Feature","properties":{"name":"Hove"},"geometry":{"type":"Point","coordinates":[4.4655959,51.1533777]}},{"type":"Feature","properties":{"name":"Kontich-Lint"},"geometry":{"type":"Point","coordinates":[4.4766676,51.1339486]}},{"type":"Feature","properties":{"name":"Antwerpen-Berchem"},"geometry":{"type":"Point","coordinates":[4.4323348,51.1997015]}},{"type":"Feature","properties":{"name":"Simonis"},"geometry":{"type":"Point","coordinates":[4.3312082,50.8635683]}},{"type":"Feature","properties":{"name":"Bruxelles-Ouest - Brussel-West"},"geometry":{"type":"Point","coordinates":[4.3219207,50.8503482]}},{"type":"Feature","properties":{"name":"Herseaux - Herzeeuw"},"geometry":{"type":"Point","coordinates":[3.2428979,50.7152221]}},{"type":"Feature","properties":{"name":"Mouscron - Moeskroen"},"geometry":{"type":"Point","coordinates":[3.2274412,50.7401119]}},{"type":"Feature","properties":{"name":"Deinze"},"geometry":{"type":"Point","coordinates":[3.5350733,50.9781449]}},{"type":"Feature","properties":{"name":"Tielt"},"geometry":{"type":"Point","coordinates":[3.3296225,50.990425]}},{"type":"Feature","properties":{"name":"Diksmuide"},"geometry":{"type":"Point","coordinates":[2.8692705,51.032734]}},{"type":"Feature","properties":{"name":"Koksijde"},"geometry":{"type":"Point","coordinates":[2.6530273,51.0790752]}},{"type":"Feature","properties":{"name":"Veurne"},"geometry":{"type":"Point","coordinates":[2.6710821,51.0737391]}},{"type":"Feature","properties":{"name":"Torhout"},"geometry":{"type":"Point","coordinates":[3.105734,51.0647908]}},{"type":"Feature","properties":{"name":"Zedelgem"},"geometry":{"type":"Point","coordinates":[3.1636812,51.1266218]}},{"type":"Feature","properties":{"name":"Lebbeke"},"geometry":{"type":"Point","coordinates":[4.1342764,51.0052426]}},{"type":"Feature","properties":{"name":"Sint-Gillis"},"geometry":{"type":"Point","coordinates":[4.1184422,51.0211749]}},{"type":"Feature","properties":{"name":"Merchtem"},"geometry":{"type":"Point","coordinates":[4.2236048,50.9540161]}},{"type":"Feature","properties":{"name":"Opwijk"},"geometry":{"type":"Point","coordinates":[4.1871777,50.9747763]}},{"type":"Feature","properties":{"name":"Heizijde"},"geometry":{"type":"Point","coordinates":[4.1562605,50.9895027]}},{"type":"Feature","properties":{"name":"Asse"},"geometry":{"type":"Point","coordinates":[4.2083648,50.9064259]}},{"type":"Feature","properties":{"name":"Mollem"},"geometry":{"type":"Point","coordinates":[4.2164122,50.9327234]}},{"type":"Feature","properties":{"name":"Zellik"},"geometry":{"type":"Point","coordinates":[4.2756033,50.8893862]}},{"type":"Feature","properties":{"name":"Jette"},"geometry":{"type":"Point","coordinates":[4.3282081,50.8809447]}},{"type":"Feature","properties":{"name":"Mortsel-Liersesteenweg"},"geometry":{"type":"Point","coordinates":[4.4691651,51.1695282]}},{"type":"Feature","properties":{"name":"Mortsel"},"geometry":{"type":"Point","coordinates":[4.4472516,51.1831225]}},{"type":"Feature","properties":{"name":"Hofstade"},"geometry":{"type":"Point","coordinates":[4.4983144,50.9884748]}},{"type":"Feature","properties":{"name":"Willebroek"},"geometry":{"type":"Point","coordinates":[4.3560247,51.0664347]}},{"type":"Feature","properties":{"name":"Bornem"},"geometry":{"type":"Point","coordinates":[4.2400736,51.0993795]}},{"type":"Feature","properties":{"name":"Puurs"},"geometry":{"type":"Point","coordinates":[4.2828146,51.0772325]}},{"type":"Feature","properties":{"name":"Sint-Niklaas"},"geometry":{"type":"Point","coordinates":[4.1441842,51.1719944]}},{"type":"Feature","properties":{"name":"Temse"},"geometry":{"type":"Point","coordinates":[4.2211479,51.126115]}},{"type":"Feature","properties":{"name":"Ruisbroek-Sauvegarde"},"geometry":{"type":"Point","coordinates":[4.3256858,51.0810559]}},{"type":"Feature","properties":{"name":"Schelle"},"geometry":{"type":"Point","coordinates":[4.3402494,51.125525]}},{"type":"Feature","properties":{"name":"Niel"},"geometry":{"type":"Point","coordinates":[4.3398952,51.1110591]}},{"type":"Feature","properties":{"name":"Boom"},"geometry":{"type":"Point","coordinates":[4.3603723,51.0908512]}},{"type":"Feature","properties":{"name":"Hoboken-Polder"},"geometry":{"type":"Point","coordinates":[4.3483807,51.1829633]}},{"type":"Feature","properties":{"name":"Hemiksem"},"geometry":{"type":"Point","coordinates":[4.3384992,51.1363336]}},{"type":"Feature","properties":{"name":"Zwijndrecht"},"geometry":{"type":"Point","coordinates":[4.3306372,51.2141489]}},{"type":"Feature","properties":{"name":"Nieuwkerken-Waas"},"geometry":{"type":"Point","coordinates":[4.1852432,51.1853722]}},{"type":"Feature","properties":{"name":"Beveren"},"geometry":{"type":"Point","coordinates":[4.2597046,51.2082712]}},{"type":"Feature","properties":{"name":"Melsele"},"geometry":{"type":"Point","coordinates":[4.2867883,51.2107092]}},{"type":"Feature","properties":{"name":"Sinaai"},"geometry":{"type":"Point","coordinates":[4.0682164,51.1432806]}},{"type":"Feature","properties":{"name":"Evergem"},"geometry":{"type":"Point","coordinates":[3.7023144,51.1071098]}},{"type":"Feature","properties":{"name":"Sleidinge"},"geometry":{"type":"Point","coordinates":[3.6678135,51.1262818]}},{"type":"Feature","properties":{"name":"Waarschoot"},"geometry":{"type":"Point","coordinates":[3.6151885,51.1544059]}},{"type":"Feature","properties":{"name":"Wondelgem"},"geometry":{"type":"Point","coordinates":[3.7196081,51.0890329]}},{"type":"Feature","properties":{"name":"Gentbrugge"},"geometry":{"type":"Point","coordinates":[3.7562885,51.0386296]}},{"type":"Feature","properties":{"name":"Bockstael"},"geometry":{"type":"Point","coordinates":[4.3484537,50.8794766]}},{"type":"Feature","properties":{"name":"Berchem-Sainte-Agathe - Sint-Agatha-Berchem"},"geometry":{"type":"Point","coordinates":[4.2901415,50.8727611]}},{"type":"Feature","properties":{"name":"Sint-Martens-Bodegem"},"geometry":{"type":"Point","coordinates":[4.2063072,50.8672618]}},{"type":"Feature","properties":{"name":"Dilbeek"},"geometry":{"type":"Point","coordinates":[4.2448699,50.8661778]}},{"type":"Feature","properties":{"name":"Groot-Bijgaarden"},"geometry":{"type":"Point","coordinates":[4.2738788,50.8683511]}},{"type":"Feature","properties":{"name":"Liedekerke"},"geometry":{"type":"Point","coordinates":[4.0949193,50.8825838]}},{"type":"Feature","properties":{"name":"Essene-Lombeek"},"geometry":{"type":"Point","coordinates":[4.1170463,50.8823913]}},{"type":"Feature","properties":{"name":"Ternat"},"geometry":{"type":"Point","coordinates":[4.1658889,50.8746359]}},{"type":"Feature","properties":{"name":"Erembodegem"},"geometry":{"type":"Point","coordinates":[4.0553948,50.9196657]}},{"type":"Feature","properties":{"name":"Schellebelle"},"geometry":{"type":"Point","coordinates":[3.9209671,51.0031021]}},{"type":"Feature","properties":{"name":"Serskamp"},"geometry":{"type":"Point","coordinates":[3.9586389,50.9850374]}},{"type":"Feature","properties":{"name":"Melle"},"geometry":{"type":"Point","coordinates":[3.7973741,51.0025419]}},{"type":"Feature","properties":{"name":"Kwatrecht"},"geometry":{"type":"Point","coordinates":[3.8289582,50.9917177]}},{"type":"Feature","properties":{"name":"Brugge-Sint-Pieters"},"geometry":{"type":"Point","coordinates":[3.2018012,51.222983]}},{"type":"Feature","properties":{"name":"Lissewege"},"geometry":{"type":"Point","coordinates":[3.1944575,51.2946825]}},{"type":"Feature","properties":{"name":"Zeebrugge-Strand"},"geometry":{"type":"Point","coordinates":[3.1841013,51.3304591]}},{"type":"Feature","properties":{"name":"Bruxelles-Chapelle - Brussel Kapellekerk"},"geometry":{"type":"Point","coordinates":[4.348653,50.8411615]}},{"type":"Feature","properties":{"name":"Bruxelles-Congrès - Brussel-Congres"},"geometry":{"type":"Point","coordinates":[4.362627,50.8518345]}},{"type":"Feature","properties":{"name":"Ouest"},"geometry":{"type":"Point","coordinates":[4.4371825,50.4112808]}},{"type":"Feature","properties":{"name":"Anderlecht"},"geometry":{"type":"Point","coordinates":[4.292146,50.8178792]}},{"type":"Feature","properties":{"name":"Brussels Airport-Zaventem"},"geometry":{"type":"Point","coordinates":[4.4824903,50.8983736]}},{"type":"Feature","properties":{"name":"Rebecq"},"geometry":{"type":"Point","coordinates":[4.1333745,50.6607341]}},{"type":"Feature","properties":{"name":"Rognon"},"geometry":{"type":"Point","coordinates":[4.1066766,50.6519863]}},{"type":"Feature","properties":{"name":"Tour et Taxis - Thurn en Taxis"},"geometry":{"type":"Point","coordinates":[4.3410757,50.8717612]}},{"type":"Feature","properties":{"name":"Aywaille"},"geometry":{"type":"Point","coordinates":[5.6728703,50.4728556]}},{"type":"Feature","properties":{"name":"Gembloux"},"geometry":{"type":"Point","coordinates":[4.6911124,50.5701844]}},{"type":"Feature","properties":{"name":"Eeklo Oostveld"},"geometry":{"type":"Point","coordinates":[3.5726185,51.1831167]}},{"type":"Feature","properties":{"name":"Péruwelz"},"geometry":{"type":"Point","coordinates":[3.5918599,50.5136268]}},{"type":"Feature","properties":{"name":"Ieper"},"geometry":{"type":"Point","coordinates":[2.876502,50.8478545]}},{"type":"Feature","properties":{"name":"Forest-Saint-Georges"},"geometry":{"type":"Point","coordinates":[4.3144068,50.8013269]}},{"type":"Feature","properties":{"name":"Gilly"},"geometry":{"type":"Point","coordinates":[4.4795404,50.4237767]}},{"type":"Feature","properties":{"name":"Station Dorpsplein"},"geometry":{"type":"Point","coordinates":[2.5991893,51.0816751]}},{"type":"Feature","properties":{"name":"Station Heidiland"},"geometry":{"type":"Point","coordinates":[2.5975421,51.0787354]}},{"type":"Feature","properties":{"name":"Station Wickieland"},"geometry":{"type":"Point","coordinates":[2.5963457,51.0821395]}},{"type":"Feature","properties":{"name":"Ketnet Station"},"geometry":{"type":"Point","coordinates":[2.5957167,51.0803713]}},{"type":"Feature","properties":{"name":"Marabout"},"geometry":{"type":"Point","coordinates":[4.4874262,50.4270871]}},{"type":"Feature","properties":{"name":"Gazomètre"},"geometry":{"type":"Point","coordinates":[4.4740755,50.4218776]}},{"type":"Feature","properties":{"name":"Samaritaine"},"geometry":{"type":"Point","coordinates":[4.4612655,50.4199406]}},{"type":"Feature","properties":{"name":"Meir"},"geometry":{"type":"Point","coordinates":[4.4063277,51.2182162]}},{"type":"Feature","properties":{"name":"Van Eeden"},"geometry":{"type":"Point","coordinates":[4.3867608,51.220825]}},{"type":"Feature","properties":{"name":"Diamant"},"geometry":{"type":"Point","coordinates":[4.4205433,51.2166716]}},{"type":"Feature","properties":{"name":"Schijnpoort"},"geometry":{"type":"Point","coordinates":[4.4388742,51.2272447]}},{"type":"Feature","properties":{"name":"Handel"},"geometry":{"type":"Point","coordinates":[4.431952,51.2242073]}},{"type":"Feature","properties":{"name":"Elisabeth"},"geometry":{"type":"Point","coordinates":[4.4240691,51.222804]}},{"type":"Feature","properties":{"name":"Groenplaats"},"geometry":{"type":"Point","coordinates":[4.4016388,51.2186144]}},{"type":"Feature","properties":{"name":"Sport"},"geometry":{"type":"Point","coordinates":[4.4427177,51.2301579]}},{"type":"Feature","properties":{"name":"Opera"},"geometry":{"type":"Point","coordinates":[4.4154916,51.21793]}},{"type":"Feature","properties":{"name":"Plantin"},"geometry":{"type":"Point","coordinates":[4.4219896,51.2106022]}},{"type":"Feature","properties":{"name":"De Cartier"},"geometry":{"type":"Point","coordinates":[4.3956362,50.407108]}},{"type":"Feature","properties":{"name":"Soleilmont"},"geometry":{"type":"Point","coordinates":[4.5025645,50.4303393]}},{"type":"Feature","properties":{"name":"Sart-Culpart"},"geometry":{"type":"Point","coordinates":[4.495096,50.4290881]}},{"type":"Feature","properties":{"name":"Tirou"},"geometry":{"type":"Point","coordinates":[4.4453626,50.4060279]}},{"type":"Feature","properties":{"name":"Gare Centrale"},"geometry":{"type":"Point","coordinates":[4.4369251,50.4051718]}},{"type":"Feature","properties":{"name":"Piges"},"geometry":{"type":"Point","coordinates":[4.4371521,50.4154409]}},{"type":"Feature","properties":{"name":"Dampremy"},"geometry":{"type":"Point","coordinates":[4.4287166,50.4164751]}},{"type":"Feature","properties":{"name":"Providence"},"geometry":{"type":"Point","coordinates":[4.4077857,50.4128271]}},{"type":"Feature","properties":{"name":"Paradis"},"geometry":{"type":"Point","coordinates":[4.3381893,50.4052448]}},{"type":"Feature","properties":{"name":"Morgnies"},"geometry":{"type":"Point","coordinates":[4.3652674,50.4042429]}},{"type":"Feature","properties":{"name":"Moulin"},"geometry":{"type":"Point","coordinates":[4.3873672,50.4086135]}},{"type":"Feature","properties":{"name":"Fontaine"},"geometry":{"type":"Point","coordinates":[4.3268998,50.4066331]}},{"type":"Feature","properties":{"name":"Leernes"},"geometry":{"type":"Point","coordinates":[4.3470622,50.4016913]}},{"type":"Feature","properties":{"name":"Sambre"},"geometry":{"type":"Point","coordinates":[4.4422384,50.4053723]}},{"type":"Feature","properties":{"name":"Pétria"},"geometry":{"type":"Point","coordinates":[4.3117266,50.4061366]}},{"type":"Feature","properties":{"name":"Sacré Madame"},"geometry":{"type":"Point","coordinates":[4.4385,50.4180561]}},{"type":"Feature","properties":{"name":"Jonction"},"geometry":{"type":"Point","coordinates":[4.2832818,50.4002462]}},{"type":"Feature","properties":{"name":"Route de Thuin"},"geometry":{"type":"Point","coordinates":[4.2871351,50.403405]}},{"type":"Feature","properties":{"name":"Coron du Berger"},"geometry":{"type":"Point","coordinates":[4.3022099,50.4064751]}},{"type":"Feature","properties":{"name":"Surchiste"},"geometry":{"type":"Point","coordinates":[4.2924556,50.4062495]}},{"type":"Feature","properties":{"name":"Rue de la Station"},"geometry":{"type":"Point","coordinates":[4.2769123,50.4033097]}},{"type":"Feature","properties":{"name":"Monument"},"geometry":{"type":"Point","coordinates":[4.2714088,50.4057733]}},{"type":"Feature","properties":{"name":"La Planche"},"geometry":{"type":"Point","coordinates":[4.4403679,50.4223543]}},{"type":"Feature","properties":{"name":"Émailleries"},"geometry":{"type":"Point","coordinates":[4.4385681,50.4709418]}},{"type":"Feature","properties":{"name":"Chaussée de Fleurus"},"geometry":{"type":"Point","coordinates":[4.436761,50.4638809]}},{"type":"Feature","properties":{"name":"Rue du Chemin de Fer"},"geometry":{"type":"Point","coordinates":[4.4389287,50.4726459]}},{"type":"Feature","properties":{"name":"Faubourg de Bruxelles"},"geometry":{"type":"Point","coordinates":[4.4400373,50.47691]}},{"type":"Feature","properties":{"name":"Calvaire"},"geometry":{"type":"Point","coordinates":[4.4322275,50.4687611]}},{"type":"Feature","properties":{"name":"City Nord"},"geometry":{"type":"Point","coordinates":[4.4383509,50.4682042]}},{"type":"Feature","properties":{"name":"Bruyerre"},"geometry":{"type":"Point","coordinates":[4.4359207,50.473509]}},{"type":"Feature","properties":{"name":"Madeleine"},"geometry":{"type":"Point","coordinates":[4.4330671,50.4522989]}},{"type":"Feature","properties":{"name":"Saint-Antoine"},"geometry":{"type":"Point","coordinates":[4.4397505,50.4363403]}},{"type":"Feature","properties":{"name":"Puissant"},"geometry":{"type":"Point","coordinates":[4.438234,50.4399924]}},{"type":"Feature","properties":{"name":"Marie Curie"},"geometry":{"type":"Point","coordinates":[4.440705,50.4307164]}},{"type":"Feature","properties":{"name":"Carrosse"},"geometry":{"type":"Point","coordinates":[4.4305433,50.4596586]}},{"type":"Feature","properties":{"name":"Chaussée de Gilly"},"geometry":{"type":"Point","coordinates":[4.4369068,50.4432254]}},{"type":"Feature","properties":{"name":"Rue Bertaux"},"geometry":{"type":"Point","coordinates":[4.4355096,50.446463]}},{"type":"Feature","properties":{"name":"Deschassis"},"geometry":{"type":"Point","coordinates":[4.4405802,50.4272212]}},{"type":"Feature","properties":{"name":"Léopold"},"geometry":{"type":"Point","coordinates":[4.4316113,50.4649928]}},{"type":"Feature","properties":{"name":"Theux"},"geometry":{"type":"Point","coordinates":[5.8151706,50.5362577]}},{"type":"Feature","properties":{"name":"Boussu"},"geometry":{"type":"Point","coordinates":[3.7965551,50.4361902]}},{"type":"Feature","properties":{"name":"Buggenhout a/d Schelde"},"geometry":{"type":"Point","coordinates":[4.1934603,51.0336463]}},{"type":"Feature","properties":{"name":"Sint-Pietersburcht"},"geometry":{"type":"Point","coordinates":[4.2634941,51.0750233]}},{"type":"Feature","properties":{"name":"Antwerpen-Linkeroever"},"geometry":{"type":"Point","coordinates":[4.3593867,51.2158178]}},{"type":"Feature","properties":{"name":"Dortmund-Dorstfeld"},"geometry":{"type":"Point","coordinates":[7.4248036,51.509323]}},{"type":"Feature","properties":{"name":"Speyer Nord-West"},"geometry":{"type":"Point","coordinates":[8.4190566,49.333649]}},{"type":"Feature","properties":{"name":"Dortmund-Dorstfeld Süd"},"geometry":{"type":"Point","coordinates":[7.419966,51.5006672]}},{"type":"Feature","properties":{"name":"Friedrichsberg"},"geometry":{"type":"Point","coordinates":[10.0573941,53.5765593]}},{"type":"Feature","properties":{"name":"Düsseldorf-Hellerhof"},"geometry":{"type":"Point","coordinates":[6.9091113,51.1329815]}},{"type":"Feature","properties":{"name":"Friedrichstal Saint-Riquier-Platz"},"geometry":{"type":"Point","coordinates":[8.4743503,49.1008421]}},{"type":"Feature","properties":{"name":"Friedrichstal Mitte"},"geometry":{"type":"Point","coordinates":[8.4752282,49.104191]}},{"type":"Feature","properties":{"name":"Speyer Hauptbahnhof"},"geometry":{"type":"Point","coordinates":[8.4282779,49.3249905]}},{"type":"Feature","properties":{"name":"Düsseldorf-Benrath"},"geometry":{"type":"Point","coordinates":[6.878697,51.1621733]}},{"type":"Feature","properties":{"name":"Hersel"},"geometry":{"type":"Point","coordinates":[7.0430279,50.7700676]}},{"type":"Feature","properties":{"name":"Hilden"},"geometry":{"type":"Point","coordinates":[6.9209793,51.167444]}},{"type":"Feature","properties":{"name":"Hagen Hbf"},"geometry":{"type":"Point","coordinates":[7.4608882,51.3631373]}},{"type":"Feature","properties":{"name":"Weingarten (Baden)"},"geometry":{"type":"Point","coordinates":[8.5212592,49.059155]}},{"type":"Feature","properties":{"name":"Eppingen"},"geometry":{"type":"Point","coordinates":[8.9225419,49.1430458]}},{"type":"Feature","properties":{"name":"Angermund"},"geometry":{"type":"Point","coordinates":[6.7817982,51.3309687]}},{"type":"Feature","properties":{"name":"Collini-Center"},"geometry":{"type":"Point","coordinates":[8.4770287,49.4916611]}},{"type":"Feature","properties":{"name":"Neuostheim"},"geometry":{"type":"Point","coordinates":[8.523005,49.477644]}},{"type":"Feature","properties":{"name":"Heilbronn Hbf"},"geometry":{"type":"Point","coordinates":[9.1860947,49.1316736]}},{"type":"Feature","properties":{"name":"Witten Hbf"},"geometry":{"type":"Point","coordinates":[7.3297097,51.4356069]}},{"type":"Feature","properties":{"name":"Düsseldorf-Rath Mitte S"},"geometry":{"type":"Point","coordinates":[6.8081392,51.2611676]}},{"type":"Feature","properties":{"name":"Seckenheim Rathaus"},"geometry":{"type":"Point","coordinates":[8.5631823,49.4670479]}},{"type":"Feature","properties":{"name":"Berghausen (Pfalz)"},"geometry":{"type":"Point","coordinates":[8.4061946,49.2954295]}},{"type":"Feature","properties":{"name":"Duale Hochschule"},"geometry":{"type":"Point","coordinates":[8.5343487,49.4753223]}},{"type":"Feature","properties":{"name":"Köln-Longerich"},"geometry":{"type":"Point","coordinates":[6.9014225,50.9982809]}},{"type":"Feature","properties":{"name":"Düsseldorf-Friedrichstadt"},"geometry":{"type":"Point","coordinates":[6.7892172,51.2123121]}},{"type":"Feature","properties":{"name":"Wabern (Bz Kassel)"},"geometry":{"type":"Point","coordinates":[9.3582039,51.1029068]}},{"type":"Feature","properties":{"name":"Friedrichstal Nord"},"geometry":{"type":"Point","coordinates":[8.4765419,49.1089484]}},{"type":"Feature","properties":{"name":"Bahnhof Schwandorf i.d. Opf"},"geometry":{"type":"Point","coordinates":[12.1053999,49.3233982]}},{"type":"Feature","properties":{"name":"Richard-Hecht Schule"},"geometry":{"type":"Point","coordinates":[8.5050431,49.1127039]}},{"type":"Feature","properties":{"name":"Maschen"},"geometry":{"type":"Point","coordinates":[10.0705528,53.4022161]}},{"type":"Feature","properties":{"name":"Forchheim Hauptstraße"},"geometry":{"type":"Point","coordinates":[8.3122112,48.9747671]}},{"type":"Feature","properties":{"name":"KIT-Campus Nord Bahnhof"},"geometry":{"type":"Point","coordinates":[8.4302342,49.0970796]}},{"type":"Feature","properties":{"name":"Raumünzach"},"geometry":{"type":"Point","coordinates":[8.35139,48.6451369]}},{"type":"Feature","properties":{"name":"Düsseldorf-Bilk"},"geometry":{"type":"Point","coordinates":[6.7752386,51.2079509]}},{"type":"Feature","properties":{"name":"Berufsschule"},"geometry":{"type":"Point","coordinates":[8.6608259,49.4085279]}},{"type":"Feature","properties":{"name":"Edingen Bahnhof"},"geometry":{"type":"Point","coordinates":[8.6149353,49.4413443]}},{"type":"Feature","properties":{"name":"Wieblingen Mitte"},"geometry":{"type":"Point","coordinates":[8.6458525,49.4237543]}},{"type":"Feature","properties":{"name":"Seckenheim OEG-Bahnhof"},"geometry":{"type":"Point","coordinates":[8.5696077,49.4621002]}},{"type":"Feature","properties":{"name":"Rendsburg-Mastbrook"},"geometry":{"type":"Point","coordinates":[9.6408322,54.3154948]}},{"type":"Feature","properties":{"name":"Rendsburg-Seemühlen"},"geometry":{"type":"Point","coordinates":[9.6215192,54.3112632]}},{"type":"Feature","properties":{"name":"Düsseldorf-Gerresheim"},"geometry":{"type":"Point","coordinates":[6.8636177,51.2202097]}},{"type":"Feature","properties":{"name":"Essen Hauptbahnhof"},"geometry":{"type":"Point","coordinates":[7.0238591,51.4547029]}},{"type":"Feature","properties":{"name":"Düsseldorf-Hamm"},"geometry":{"type":"Point","coordinates":[6.7405573,51.2107671]}},{"type":"Feature","properties":{"name":"Hilden Süd"},"geometry":{"type":"Point","coordinates":[6.9375199,51.1636848]}},{"type":"Feature","properties":{"name":"Dortmund-Dorstfeld"},"geometry":{"type":"Point","coordinates":[7.4243563,51.5094771]}},{"type":"Feature","properties":{"name":"Bochum-Dahlhausen"},"geometry":{"type":"Point","coordinates":[7.1408476,51.4263579]}},{"type":"Feature","properties":{"name":"Heiligenstein (Pfalz)"},"geometry":{"type":"Point","coordinates":[8.3938558,49.2857302]}},{"type":"Feature","properties":{"name":"Köln-Ehrenfeld"},"geometry":{"type":"Point","coordinates":[6.9174724,50.9515967]}},{"type":"Feature","properties":{"name":"Haan"},"geometry":{"type":"Point","coordinates":[6.9983309,51.1873505]}},{"type":"Feature","properties":{"name":"Wesel-Feldmark"},"geometry":{"type":"Point","coordinates":[6.6169522,51.6761065]}},{"type":"Feature","properties":{"name":"Flandersbach"},"geometry":{"type":"Point","coordinates":[6.9857922,51.3091572]}},{"type":"Feature","properties":{"name":"Cäcilienstraße"},"geometry":{"type":"Point","coordinates":[7.0129758,51.4396692]}},{"type":"Feature","properties":{"name":"Gemarkenplatz"},"geometry":{"type":"Point","coordinates":[6.9977829,51.4422933]}},{"type":"Feature","properties":{"name":"Planckstraße"},"geometry":{"type":"Point","coordinates":[7.0001746,51.445115]}},{"type":"Feature","properties":{"name":"Melsungen Bahnhof"},"geometry":{"type":"Point","coordinates":[9.5460911,51.1260345]}},{"type":"Feature","properties":{"name":"Hage (Ostfriesland)"},"geometry":{"type":"Point","coordinates":[7.2867092,53.6084452]}},{"type":"Feature","properties":{"name":"Düsseldorf Hauptbahnhof"},"geometry":{"type":"Point","coordinates":[6.7938918,51.2196713]}},{"type":"Feature","properties":{"name":"Haus Kemnade"},"geometry":{"type":"Point","coordinates":[7.2515744,51.4065234]}},{"type":"Feature","properties":{"name":"Herbede"},"geometry":{"type":"Point","coordinates":[7.2809555,51.4252393]}},{"type":"Feature","properties":{"name":"Ruine Hardenstein"},"geometry":{"type":"Point","coordinates":[7.300721,51.4204886]}},{"type":"Feature","properties":{"name":"Zeche Nachtigall"},"geometry":{"type":"Point","coordinates":[7.3194837,51.4296201]}},{"type":"Feature","properties":{"name":"Blankenstein Burg"},"geometry":{"type":"Point","coordinates":[7.2295159,51.4092481]}},{"type":"Feature","properties":{"name":"Hattingen (Ruhr)"},"geometry":{"type":"Point","coordinates":[7.1698406,51.4010981]}},{"type":"Feature","properties":{"name":"Henrichshütte"},"geometry":{"type":"Point","coordinates":[7.1820518,51.4090559]}},{"type":"Feature","properties":{"name":"Wengern Ost"},"geometry":{"type":"Point","coordinates":[7.3513681,51.3992196]}},{"type":"Feature","properties":{"name":"Witten-Bommern"},"geometry":{"type":"Point","coordinates":[7.3398151,51.4246766]}},{"type":"Feature","properties":{"name":"Bochum-Dahlhausen Eisenbahnmuseum"},"geometry":{"type":"Point","coordinates":[7.1231709,51.4322802]}},{"type":"Feature","properties":{"name":"Zeche Nachtigall"},"geometry":{"type":"Point","coordinates":[7.3139113,51.4293229]}},{"type":"Feature","properties":{"name":"Parkplatz Nachtigallstraße"},"geometry":{"type":"Point","coordinates":[7.3279799,51.4276241]}},{"type":"Feature","properties":{"name":"Deutsches Gruben- und Feldbahnmuseum"},"geometry":{"type":"Point","coordinates":[7.3250297,51.4282943]}},{"type":"Feature","properties":{"name":"Kamen"},"geometry":{"type":"Point","coordinates":[7.6604857,51.5852052]}},{"type":"Feature","properties":{"name":"Herborn (Dillkr)"},"geometry":{"type":"Point","coordinates":[8.3079331,50.6844212]}},{"type":"Feature","properties":{"name":"Düsseldorf Völklinger Straße"},"geometry":{"type":"Point","coordinates":[6.76049,51.2101089]}},{"type":"Feature","properties":{"name":"Düsseldorf-Flingern"},"geometry":{"type":"Point","coordinates":[6.810341,51.226246]}},{"type":"Feature","properties":{"name":"Willingen"},"geometry":{"type":"Point","coordinates":[8.6030158,51.2936544]}},{"type":"Feature","properties":{"name":"Fischbach-Camphausen"},"geometry":{"type":"Point","coordinates":[7.0312692,49.3047257]}},{"type":"Feature","properties":{"name":"Lehmen"},"geometry":{"type":"Point","coordinates":[7.4552157,50.2848638]}},{"type":"Feature","properties":{"name":"Weingarten (Baden)"},"geometry":{"type":"Point","coordinates":[8.5215467,49.0595579]}},{"type":"Feature","properties":{"name":"Boppard Süd"},"geometry":{"type":"Point","coordinates":[7.5951646,50.2301131]}},{"type":"Feature","properties":{"name":"Weiden (Oberpf)"},"geometry":{"type":"Point","coordinates":[12.1539638,49.6708896]}},{"type":"Feature","properties":{"name":"Malsfeld"},"geometry":{"type":"Point","coordinates":[9.5348035,51.0973473]}},{"type":"Feature","properties":{"name":"Niederzwönitz"},"geometry":{"type":"Point","coordinates":[12.8218753,50.6462277]}},{"type":"Feature","properties":{"name":"Neuhausen (Erzgeb)"},"geometry":{"type":"Point","coordinates":[13.4654462,50.6748598]}},{"type":"Feature","properties":{"name":"Zöblitz-Pobershau"},"geometry":{"type":"Point","coordinates":[13.2137783,50.6601389]}},{"type":"Feature","properties":{"name":"Werdorf"},"geometry":{"type":"Point","coordinates":[8.4158254,50.5926068]}},{"type":"Feature","properties":{"name":"Katzenfurt"},"geometry":{"type":"Point","coordinates":[8.3434924,50.6157436]}},{"type":"Feature","properties":{"name":"Edingen"},"geometry":{"type":"Point","coordinates":[8.3232806,50.6320549]}},{"type":"Feature","properties":{"name":"Sinn"},"geometry":{"type":"Point","coordinates":[8.325365,50.6492363]}},{"type":"Feature","properties":{"name":"Burg (Dillkr.) Nord"},"geometry":{"type":"Point","coordinates":[8.3074804,50.7003303]}},{"type":"Feature","properties":{"name":"Melsungen-Bartenwetzerbrücke"},"geometry":{"type":"Point","coordinates":[9.5484222,51.1322278]}},{"type":"Feature","properties":{"name":"Melsungen-Röhrenfurth"},"geometry":{"type":"Point","coordinates":[9.547872,51.154512]}},{"type":"Feature","properties":{"name":"Körle"},"geometry":{"type":"Point","coordinates":[9.5130906,51.1716221]}},{"type":"Feature","properties":{"name":"Guxhagen"},"geometry":{"type":"Point","coordinates":[9.4815523,51.2047152]}},{"type":"Feature","properties":{"name":"Baunatal-Guntershausen"},"geometry":{"type":"Point","coordinates":[9.4670586,51.2298181]}},{"type":"Feature","properties":{"name":"Zierenberg"},"geometry":{"type":"Point","coordinates":[9.3049761,51.364997]}},{"type":"Feature","properties":{"name":"Zierenberg-Rosental"},"geometry":{"type":"Point","coordinates":[9.2914002,51.3677706]}},{"type":"Feature","properties":{"name":"Felsberg-Gensungen"},"geometry":{"type":"Point","coordinates":[9.4357302,51.1312802]}},{"type":"Feature","properties":{"name":"Felsberg-Wolfershausen"},"geometry":{"type":"Point","coordinates":[9.4490735,51.186733]}},{"type":"Feature","properties":{"name":"Edermünde-Grifte"},"geometry":{"type":"Point","coordinates":[9.4493547,51.2095087]}},{"type":"Feature","properties":{"name":"Straubing"},"geometry":{"type":"Point","coordinates":[12.574238,48.877088]}},{"type":"Feature","properties":{"name":"Straubing Ost"},"geometry":{"type":"Point","coordinates":[12.5925715,48.8765006]}},{"type":"Feature","properties":{"name":"Ittling"},"geometry":{"type":"Point","coordinates":[12.6371323,48.884867]}},{"type":"Feature","properties":{"name":"Bogen"},"geometry":{"type":"Point","coordinates":[12.687219,48.9108377]}},{"type":"Feature","properties":{"name":"Pösing"},"geometry":{"type":"Point","coordinates":[12.5430588,49.2292283]}},{"type":"Feature","properties":{"name":"Roding"},"geometry":{"type":"Point","coordinates":[12.5141996,49.2139441]}},{"type":"Feature","properties":{"name":"Cham (Oberpf)"},"geometry":{"type":"Point","coordinates":[12.6568542,49.2220814]}},{"type":"Feature","properties":{"name":"Unterjesingen Sandäcker"},"geometry":{"type":"Point","coordinates":[8.988225,48.5233389]}},{"type":"Feature","properties":{"name":"Unterjesingen Mitte"},"geometry":{"type":"Point","coordinates":[8.9816601,48.524735]}},{"type":"Feature","properties":{"name":"Gültstein"},"geometry":{"type":"Point","coordinates":[8.8818438,48.5774119]}},{"type":"Feature","properties":{"name":"Altingen"},"geometry":{"type":"Point","coordinates":[8.908941,48.5619198]}},{"type":"Feature","properties":{"name":"Entringen"},"geometry":{"type":"Point","coordinates":[8.9629199,48.5525793]}},{"type":"Feature","properties":{"name":"Augsburg Morellstraße"},"geometry":{"type":"Point","coordinates":[10.8930876,48.355178]}},{"type":"Feature","properties":{"name":"Walleshausen"},"geometry":{"type":"Point","coordinates":[10.9810455,48.1502283]}},